$GNRMC,030838.000,A,2234.1984,N,11434.4223,E,0.00,137.07,100521,,,A*72
$GNRMC,030840.000,A,2234.1984,N,11434.4223,E,0.00,137.07,100521,,,A*7D
$GNRMC,030841.000,A,2234.1984,N,11434.4223,E,0.85,347.29,100521,,,A*78
$GNRMC,030842.000,A,2234.1984,N,11434.4223,E,0.00,137.07,100521,,,A*7F
$GNRMC,030843.000,A,2234.1984,N,11434.4223,E,0.00,137.07,100521,,,A*7E
$GNRMC,030844.000,A,2234.1984,N,11434.4223,E,0.00,137.07,100521,,,A*79
$GNRMC,030846.000,A,2234.1984,N,11434.4223,E,0.00,137.07,100521,,,A*7B
$GNRMC,030847.000,A,2234.1984,N,11434.4223,E,0.00,137.07,100521,,,A*7A
$GNRMC,030848.000,A,2234.1984,N,11434.4223,E,0.00,137.07,100521,,,A*75
$GNRMC,030849.000,A,2234.1984,N,11434.4223,E,0.90,129.29,100521,,,A*7E
$GNRMC,030850.000,A,2234.1984,N,11434.4223,E,0.00,137.07,100521,,,A*7C
$GNRMC,030851.000,A,2234.1984,N,11434.4223,E,0.00,137.07,100521,,,A*7D
$GNRMC,030852.000,A,2234.1984,N,11434.4223,E,0.00,137.07,100521,,,A*7E
$GNRMC,030853.000,A,2234.1984,N,11434.4223,E,0.00,137.07,100521,,,A*7F
$GNRMC,030854.000,A,2234.1984,N,11434.4223,E,0.00,137.07,100521,,,A*78
$GNRMC,030855.000,A,2234.1984,N,11434.4223,E,0.00,137.07,100521,,,A*79
$GNRMC,030856.000,A,2234.1984,N,11434.4223,E,0.00,137.07,100521,,,A*7A
$GNRMC,030857.000,A,2234.1984,N,11434.4223,E,0.00,137.07,100521,,,A*7B
$GNRMC,030858.000,A,2234.1984,N,11434.4223,E,0.00,137.07,100521,,,A*74
$GNRMC,030859.000,A,2234.1984,N,11434.4223,E,0.00,137.07,100521,,,A*75
$GNRMC,030900.000,A,2234.1984,N,11434.4223,E,0.00,137.07,100521,,,A*78
$GNRMC,030901.000,A,2234.1984,N,11434.4223,E,0.00,137.07,100521,,,A*79
$GNRMC,030902.000,A,2234.1984,N,11434.4223,E,0.00,137.07,100521,,,A*7A
$GNRMC,030903.000,A,2234.1984,N,11434.4223,E,0.00,137.07,100521,,,A*7B
$GNRMC,030904.000,A,2234.1984,N,11434.4223,E,0.00,137.07,100521,,,A*7C
$GNRMC,030905.000,A,2234.1984,N,11434.4223,E,0.00,137.07,100521,,,A*7D
$GNRMC,030906.000,A,2234.1984,N,11434.4223,E,0.85,310.63,100521,,,A*76
$GNRMC,030907.000,A,2234.2009,N,11434.4238,E,0.96,332.71,100521,,,A*73
$GNRMC,030908.000,A,2234.2010,N,11434.4238,E,0.00,332.71,100521,,,A*7B
$GNRMC,030909.000,A,2234.2009,N,11434.4239,E,0.00,138.97,100521,,,A*73
$GNRMC,030910.000,A,2234.2008,N,11434.4240,E,1.60,309.02,100521,,,A*7F
$GNRMC,030911.000,A,2234.2008,N,11434.4240,E,0.00,309.02,100521,,,A*79
$GNRMC,030912.000,A,2234.2008,N,11434.4240,E,0.00,309.02,100521,,,A*7A
$GNRMC,030913.000,A,2234.2008,N,11434.4240,E,0.00,309.02,100521,,,A*7B
$GNRMC,030914.000,A,2234.2008,N,11434.4240,E,0.80,338.43,100521,,,A*73
$GNRMC,030915.000,A,2234.2008,N,11434.4240,E,0.00,309.02,100521,,,A*7D
$GNRMC,030916.000,A,2234.2008,N,11434.4240,E,0.00,309.02,100521,,,A*7E
$GNRMC,030917.000,A,2234.2008,N,11434.4240,E,0.00,309.02,100521,,,A*7F
$GNRMC,030918.000,A,2234.2008,N,11434.4240,E,0.00,309.02,100521,,,A*70
$GNRMC,030919.000,A,2234.2008,N,11434.4240,E,0.79,275.77,100521,,,A*77
$GNRMC,030920.000,A,2234.2008,N,11434.4240,E,0.00,309.02,100521,,,A*7B
$GNRMC,030921.000,A,2234.2008,N,11434.4240,E,0.00,309.02,100521,,,A*7A
$GNRMC,030922.000,A,2234.2008,N,11434.4240,E,0.00,309.02,100521,,,A*79
$GNRMC,030923.000,A,2234.2008,N,11434.4240,E,0.00,309.02,100521,,,A*78
$GNRMC,030924.000,A,2234.2008,N,11434.4240,E,0.00,309.02,100521,,,A*7F
$GNRMC,030925.000,A,2234.2008,N,11434.4240,E,0.00,309.02,100521,,,A*7E
$GNRMC,030926.000,A,2234.2008,N,11434.4240,E,0.00,309.02,100521,,,A*7D
$GNRMC,030927.000,A,2234.2008,N,11434.4240,E,0.00,309.02,100521,,,A*7C
$GNRMC,030929.000,A,2234.2008,N,11434.4240,E,0.86,353.75,100521,,,A*73
$GNRMC,030930.000,A,2234.2008,N,11434.4240,E,0.00,309.02,100521,,,A*7A
$GNRMC,030931.000,A,2234.2008,N,11434.4240,E,0.00,309.02,100521,,,A*7B
$GNRMC,030932.000,A,2234.2008,N,11434.4240,E,0.00,309.02,100521,,,A*78
$GNRMC,030933.000,A,2234.2008,N,11434.4240,E,0.82,34.65,100521,,,A*4F
$GNRMC,030935.000,A,2234.2008,N,11434.4240,E,0.00,309.02,100521,,,A*7F
$GNRMC,030936.000,A,2234.2008,N,11434.4240,E,0.00,309.02,100521,,,A*7C
$GNRMC,030937.000,A,2234.2008,N,11434.4240,E,0.00,309.02,100521,,,A*7D
$GNRMC,030938.000,A,2234.2008,N,11434.4240,E,0.00,309.02,100521,,,A*72
$GNRMC,030939.000,A,2234.2008,N,11434.4240,E,0.00,309.02,100521,,,A*73
$GNRMC,030941.000,A,2234.2008,N,11434.4240,E,0.00,309.02,100521,,,A*7C
$GNRMC,030942.000,A,2234.2008,N,11434.4240,E,0.00,309.02,100521,,,A*7F
$GNRMC,030943.000,A,2234.2008,N,11434.4240,E,0.87,20.66,100521,,,A*4B
$GNRMC,030944.000,A,2234.2008,N,11434.4240,E,0.00,309.02,100521,,,A*79
$GNRMC,030945.000,A,2234.2008,N,11434.4240,E,0.00,309.02,100521,,,A*78
$GNRMC,030946.000,A,2234.2008,N,11434.4240,E,0.00,309.02,100521,,,A*7B
$GNRMC,030947.000,A,2234.2008,N,11434.4240,E,0.00,309.02,100521,,,A*7A
$GNRMC,030948.000,A,2234.2008,N,11434.4240,E,0.00,309.02,100521,,,A*75
$GNRMC,030949.000,A,2234.2008,N,11434.4240,E,0.00,309.02,100521,,,A*74
$GNRMC,030950.000,A,2234.2008,N,11434.4240,E,0.00,309.02,100521,,,A*7C
$GNRMC,030951.000,A,2234.2008,N,11434.4240,E,0.00,309.02,100521,,,A*7D
$GNRMC,030952.000,A,2234.2008,N,11434.4240,E,0.85,354.81,100521,,,A*70
$GNRMC,030953.000,A,2234.2008,N,11434.4240,E,0.00,309.02,100521,,,A*7F
$GNRMC,030954.000,A,2234.2008,N,11434.4240,E,0.00,309.02,100521,,,A*78
$GNRMC,030955.000,A,2234.2008,N,11434.4240,E,0.00,309.02,100521,,,A*79
$GNRMC,030956.000,A,2234.2008,N,11434.4240,E,0.00,309.02,100521,,,A*7A
$GNRMC,030957.000,A,2234.2008,N,11434.4240,E,0.00,309.02,100521,,,A*7B
$GNRMC,030958.000,A,2234.2008,N,11434.4240,E,0.00,309.02,100521,,,A*74
$GNRMC,030959.000,A,2234.2008,N,11434.4240,E,0.00,309.02,100521,,,A*75
$GNRMC,031000.000,A,2234.2008,N,11434.4240,E,0.00,309.02,100521,,,A*71
$GNRMC,031001.000,A,2234.2008,N,11434.4240,E,0.00,309.02,100521,,,A*70
$GNRMC,031002.000,A,2234.2008,N,11434.4240,E,0.00,309.02,100521,,,A*73
$GNRMC,031003.000,A,2234.2008,N,11434.4240,E,0.00,309.02,100521,,,A*72
$GNRMC,031004.000,A,2234.2008,N,11434.4240,E,0.00,309.02,100521,,,A*75
$GNRMC,031005.000,A,2234.2008,N,11434.4240,E,0.00,309.02,100521,,,A*74
$GNRMC,031006.000,A,2234.2008,N,11434.4240,E,0.00,309.02,100521,,,A*77
$GNRMC,031007.000,A,2234.2008,N,11434.4240,E,0.00,309.02,100521,,,A*76
$GNRMC,031008.000,A,2234.2008,N,11434.4240,E,0.00,309.02,100521,,,A*79
$GNRMC,031009.000,A,2234.2008,N,11434.4240,E,0.00,309.02,100521,,,A*78
$GNRMC,031010.000,A,2234.2008,N,11434.4240,E,0.00,309.02,100521,,,A*70
$GNRMC,031011.000,A,2234.2008,N,11434.4240,E,0.00,309.02,100521,,,A*71
$GNRMC,031012.000,A,2234.2008,N,11434.4240,E,0.00,309.02,100521,,,A*72
$GNRMC,031013.000,A,2234.2008,N,11434.4240,E,0.00,309.02,100521,,,A*73
$GNRMC,031014.000,A,2234.2008,N,11434.4240,E,0.00,309.02,100521,,,A*74
$GNRMC,031015.000,A,2234.2008,N,11434.4240,E,0.00,309.02,100521,,,A*75
$GNRMC,031016.000,A,2234.2008,N,11434.4240,E,0.00,309.02,100521,,,A*76
$GNRMC,031017.000,A,2234.2008,N,11434.4240,E,0.00,309.02,100521,,,A*77
$GNRMC,031018.000,A,2234.2008,N,11434.4240,E,0.00,309.02,100521,,,A*78
$GNRMC,031019.000,A,2234.2008,N,11434.4240,E,0.00,309.02,100521,,,A*79
$GNRMC,031020.000,A,2234.2008,N,11434.4240,E,0.00,309.02,100521,,,A*73
$GNRMC,031021.000,A,2234.2008,N,11434.4240,E,0.00,309.02,100521,,,A*72
$GNRMC,031022.000,A,2234.2008,N,11434.4240,E,0.00,309.02,100521,,,A*71
$GNRMC,031023.000,A,2234.2008,N,11434.4240,E,0.00,309.02,100521,,,A*70
$GNRMC,031024.000,A,2234.2062,N,11434.4232,E,0.52,163.69,100521,,,A*7A
$GNRMC,031025.000,A,2234.2062,N,11434.4233,E,0.00,163.69,100521,,,A*7D
$GNRMC,031026.000,A,2234.2062,N,11434.4234,E,1.02,297.82,100521,,,A*77
$GNRMC,031027.000,A,2234.2063,N,11434.4232,E,0.00,256.75,100521,,,A*77
$GNRMC,031028.000,A,2234.2063,N,11434.4232,E,0.00,256.75,100521,,,A*78
$GNRMC,031029.000,A,2234.2063,N,11434.4232,E,0.00,256.75,100521,,,A*79
$GNRMC,031030.000,A,2234.2063,N,11434.4232,E,0.00,256.75,100521,,,A*71
$GNRMC,031031.000,A,2234.2063,N,11434.4232,E,0.00,256.75,100521,,,A*70
$GNRMC,031032.000,A,2234.2063,N,11434.4232,E,0.00,256.75,100521,,,A*73
$GNRMC,031033.000,A,2234.2063,N,11434.4232,E,0.00,256.75,100521,,,A*72
$GNRMC,031034.000,A,2234.2063,N,11434.4232,E,0.00,256.75,100521,,,A*75
$GNRMC,031035.000,A,2234.2063,N,11434.4232,E,0.83,346.75,100521,,,A*7F
$GNRMC,031036.000,A,2234.2063,N,11434.4232,E,0.00,256.75,100521,,,A*77
$GNRMC,031037.000,A,2234.2063,N,11434.4232,E,0.00,256.75,100521,,,A*76
$GNRMC,031038.000,A,2234.2063,N,11434.4232,E,0.00,256.75,100521,,,A*79
$GNRMC,031039.000,A,2234.2063,N,11434.4232,E,0.00,256.75,100521,,,A*78
$GNRMC,031040.000,A,2234.2063,N,11434.4232,E,0.00,256.75,100521,,,A*76
$GNRMC,031041.000,A,2234.2063,N,11434.4232,E,0.00,256.75,100521,,,A*77
$GNRMC,031042.000,A,2234.2063,N,11434.4232,E,0.00,256.75,100521,,,A*74
$GNRMC,031043.000,A,2234.2063,N,11434.4232,E,0.00,256.75,100521,,,A*75
$GNRMC,031044.000,A,2234.2063,N,11434.4232,E,0.00,256.75,100521,,,A*72
$GNRMC,031045.000,A,2234.2063,N,11434.4232,E,0.00,256.75,100521,,,A*73
$GNRMC,031046.000,A,2234.2063,N,11434.4232,E,0.80,295.91,100521,,,A*7D
$GNRMC,031048.000,A,2234.2063,N,11434.4232,E,0.00,256.75,100521,,,A*7E
$GNRMC,031049.000,A,2234.2063,N,11434.4232,E,0.00,256.75,100521,,,A*7F
$GNRMC,031050.000,A,2234.2063,N,11434.4232,E,0.00,256.75,100521,,,A*77
$GNRMC,031051.000,A,2234.2063,N,11434.4232,E,0.00,256.75,100521,,,A*76
$GNRMC,031052.000,A,2234.2063,N,11434.4232,E,0.00,256.75,100521,,,A*75
$GNRMC,031054.000,A,2234.2063,N,11434.4232,E,1.02,311.29,100521,,,A*7B
$GNRMC,031055.000,A,2234.2063,N,11434.4232,E,0.00,256.75,100521,,,A*72
$GNRMC,031056.000,A,2234.2063,N,11434.4232,E,0.00,256.75,100521,,,A*71
$GNRMC,031057.000,A,2234.2063,N,11434.4232,E,0.00,256.75,100521,,,A*70
$GNRMC,031058.000,A,2234.2063,N,11434.4232,E,0.00,256.75,100521,,,A*7F
$GNRMC,031100.000,A,2234.2063,N,11434.4232,E,0.91,326.50,100521,,,A*7A
$GNRMC,031101.000,A,2234.2063,N,11434.4232,E,0.00,256.75,100521,,,A*72
$GNRMC,031102.000,A,2234.2063,N,11434.4232,E,0.00,256.75,100521,,,A*71
$GNRMC,031103.000,A,2234.2063,N,11434.4232,E,0.85,24.32,100521,,,A*49
$GNRMC,031104.000,A,2234.2063,N,11434.4232,E,0.00,256.75,100521,,,A*77
$GNRMC,031106.000,A,2234.2063,N,11434.4232,E,0.00,256.75,100521,,,A*75
$GNRMC,031107.000,A,2234.2063,N,11434.4232,E,0.00,256.75,100521,,,A*74
$GNRMC,031108.000,A,2234.2063,N,11434.4232,E,1.11,306.97,100521,,,A*72
$GNRMC,031109.000,A,2234.2063,N,11434.4232,E,0.00,256.75,100521,,,A*7A
$GNRMC,031110.000,A,2234.2063,N,11434.4232,E,0.00,256.75,100521,,,A*72
$GNRMC,031112.000,A,2234.2063,N,11434.4232,E,0.00,256.75,100521,,,A*70
$GNRMC,031113.000,A,2234.2063,N,11434.4232,E,0.00,256.75,100521,,,A*71
$GNRMC,031114.000,A,2234.2063,N,11434.4232,E,0.00,256.75,100521,,,A*76
$GNRMC,031115.000,A,2234.2063,N,11434.4232,E,0.81,84.83,100521,,,D*4F
$GNRMC,031116.000,A,2234.2063,N,11434.4232,E,0.00,256.75,100521,,,D*71
$GNRMC,031118.000,A,2234.2063,N,11434.4232,E,0.00,256.75,100521,,,D*7F
$GNRMC,031119.000,A,2234.2063,N,11434.4232,E,0.00,256.75,100521,,,D*7E
$GNRMC,031120.000,A,2234.2063,N,11434.4232,E,0.00,256.75,100521,,,D*74
$GNRMC,031121.000,A,2234.2063,N,11434.4232,E,0.00,256.75,100521,,,D*75
$GNRMC,031122.000,A,2234.2063,N,11434.4232,E,0.00,256.75,100521,,,D*76
$GNRMC,031123.000,A,2234.2063,N,11434.4232,E,0.00,256.75,100521,,,D*77
$GNRMC,031124.000,A,2234.2063,N,11434.4232,E,0.00,256.75,100521,,,D*70
$GNRMC,031125.000,A,2234.2063,N,11434.4232,E,0.00,256.75,100521,,,D*71
$GNRMC,031126.000,A,2234.2063,N,11434.4232,E,0.00,256.75,100521,,,D*72
$GNRMC,031127.000,A,2234.2063,N,11434.4232,E,0.88,333.47,100521,,,D*70
$GNRMC,031128.000,A,2234.2063,N,11434.4232,E,0.00,256.75,100521,,,D*7C
$GNRMC,031129.000,A,2234.2063,N,11434.4232,E,0.00,256.75,100521,,,D*7D
$GNRMC,031130.000,A,2234.2063,N,11434.4232,E,0.00,256.75,100521,,,D*75
$GNRMC,031131.000,A,2234.2063,N,11434.4232,E,0.00,256.75,100521,,,D*74
$GNRMC,031132.000,A,2234.2063,N,11434.4232,E,0.00,256.75,100521,,,D*77
$GNRMC,031133.000,A,2234.2063,N,11434.4232,E,0.00,256.75,100521,,,D*76
$GNRMC,031134.000,A,2234.2063,N,11434.4232,E,0.00,256.75,100521,,,D*71
$GNRMC,031135.000,A,2234.2063,N,11434.4232,E,0.00,256.75,100521,,,D*70
$GNRMC,031136.000,A,2234.2063,N,11434.4232,E,0.00,256.75,100521,,,D*73
$GNRMC,031137.000,A,2234.2063,N,11434.4232,E,0.00,256.75,100521,,,D*72
$GNRMC,031138.000,A,2234.2063,N,11434.4232,E,0.00,256.75,100521,,,D*7D
$GNRMC,031139.000,A,2234.2063,N,11434.4232,E,0.00,256.75,100521,,,D*7C
$GNRMC,031140.000,A,2234.2063,N,11434.4232,E,0.00,256.75,100521,,,D*72
$GNRMC,031141.000,A,2234.2063,N,11434.4232,E,0.00,256.75,100521,,,D*73
$GNRMC,031142.000,A,2234.2063,N,11434.4232,E,0.00,256.75,100521,,,D*70
$GNRMC,031143.000,A,2234.2063,N,11434.4232,E,0.00,256.75,100521,,,D*71
$GNRMC,031144.000,A,2234.2063,N,11434.4232,E,0.00,256.75,100521,,,D*76
$GNRMC,031145.000,A,2234.2063,N,11434.4232,E,0.00,256.75,100521,,,D*77
$GNRMC,031146.000,A,2234.2063,N,11434.4232,E,0.80,352.97,100521,,,D*75
$GNRMC,031147.000,A,2234.2063,N,11434.4232,E,0.00,256.75,100521,,,D*75
$GNRMC,031148.000,A,2234.2063,N,11434.4232,E,0.96,0.32,100521,,,D*77
$GNRMC,031149.000,A,2234.2063,N,11434.4232,E,0.00,256.75,100521,,,D*7B
$GNRMC,031150.000,A,2234.2063,N,11434.4232,E,0.00,256.75,100521,,,D*73
$GNRMC,031151.000,A,2234.2115,N,11434.4216,E,0.45,347.36,100521,,,D*73
$GNRMC,031152.000,A,2234.2115,N,11434.4216,E,0.00,347.36,100521,,,D*71
$GNRMC,031153.000,A,2234.2115,N,11434.4216,E,0.00,347.36,100521,,,D*70
$GNRMC,031154.000,A,2234.2117,N,11434.4215,E,0.00,347.36,100521,,,D*76
$GNRMC,031155.000,A,2234.2117,N,11434.4215,E,0.00,347.36,100521,,,D*77
$GNRMC,031156.000,A,2234.2117,N,11434.4215,E,0.00,347.36,100521,,,D*74
$GNRMC,031157.000,A,2234.2117,N,11434.4215,E,0.00,347.36,100521,,,D*75
$GNRMC,031158.000,A,2234.2117,N,11434.4215,E,0.83,15.10,100521,,,D*41
$GNRMC,031159.000,A,2234.2117,N,11434.4215,E,0.00,347.36,100521,,,D*7B
$GNRMC,031201.000,A,2234.2117,N,11434.4215,E,0.00,347.36,100521,,,D*75
$GNRMC,031202.000,A,2234.2117,N,11434.4215,E,0.00,347.36,100521,,,D*76
$GNRMC,031203.000,A,2234.2117,N,11434.4215,E,0.00,347.36,100521,,,D*77
$GNRMC,031204.000,A,2234.2117,N,11434.4215,E,0.00,347.36,100521,,,D*70
$GNRMC,031205.000,A,2234.2117,N,11434.4215,E,0.00,347.36,100521,,,D*71
$GNRMC,031207.000,A,2234.2117,N,11434.4215,E,0.00,347.36,100521,,,D*73
$GNRMC,031208.000,A,2234.2117,N,11434.4215,E,0.00,347.36,100521,,,D*7C
$GNRMC,031209.000,A,2234.2117,N,11434.4215,E,0.00,347.36,100521,,,D*7D
$GNRMC,031210.000,A,2234.2117,N,11434.4215,E,0.00,347.36,100521,,,D*75
$GNRMC,031211.000,A,2234.2117,N,11434.4215,E,0.00,347.36,100521,,,D*74
$GNRMC,031213.000,A,2234.2117,N,11434.4215,E,0.00,347.36,100521,,,D*76
$GNRMC,031214.000,A,2234.2117,N,11434.4215,E,0.89,339.33,100521,,,D*7C
$GNRMC,031215.000,A,2234.2117,N,11434.4215,E,0.00,347.36,100521,,,D*70
$GNRMC,031216.000,A,2234.2117,N,11434.4215,E,0.00,347.36,100521,,,D*73
$GNRMC,031217.000,A,2234.2117,N,11434.4215,E,0.00,347.36,100521,,,D*72
$GNRMC,031219.000,A,2234.2117,N,11434.4215,E,0.00,347.36,100521,,,D*7C
$GNRMC,031220.000,A,2234.2117,N,11434.4215,E,0.92,347.93,100521,,,D*72
$GNRMC,031221.000,A,2234.2117,N,11434.4215,E,0.00,347.36,100521,,,D*77
$GNRMC,031222.000,A,2234.2117,N,11434.4215,E,0.00,347.36,100521,,,D*74
$GNRMC,031223.000,A,2234.2117,N,11434.4215,E,0.00,347.36,100521,,,D*75
$GNRMC,031224.000,A,2234.2117,N,11434.4215,E,1.19,319.73,100521,,,D*71
$GNRMC,031225.000,A,2234.2117,N,11434.4215,E,0.00,347.36,100521,,,D*73
$GNRMC,031226.000,A,2234.2117,N,11434.4215,E,0.92,335.36,100521,,,D*7E
$GNRMC,031227.000,A,2234.2117,N,11434.4215,E,0.00,347.36,100521,,,D*71
$GNRMC,031228.000,A,2234.2117,N,11434.4215,E,0.00,347.36,100521,,,D*7E
$GNRMC,031229.000,A,2234.2117,N,11434.4215,E,0.00,347.36,100521,,,D*7F
$GNRMC,031230.000,A,2234.2117,N,11434.4215,E,0.00,347.36,100521,,,D*77
$GNRMC,031231.000,A,2234.2117,N,11434.4215,E,0.00,347.36,100521,,,D*76
$GNRMC,031232.000,A,2234.2117,N,11434.4215,E,0.00,347.36,100521,,,D*75
$GNRMC,031233.000,A,2234.2117,N,11434.4215,E,0.00,347.36,100521,,,D*74
$GNRMC,031234.000,A,2234.2117,N,11434.4215,E,0.00,347.36,100521,,,D*73
$GNRMC,031235.000,A,2234.2117,N,11434.4215,E,0.00,347.36,100521,,,D*72
$GNRMC,031236.000,A,2234.2117,N,11434.4215,E,0.00,347.36,100521,,,D*71
$GNRMC,031237.000,A,2234.2117,N,11434.4215,E,1.06,324.10,100521,,,D*76
$GNRMC,031238.000,A,2234.2117,N,11434.4215,E,0.00,347.36,100521,,,D*7F
$GNRMC,031239.000,A,2234.2117,N,11434.4215,E,0.00,347.36,100521,,,D*7E
$GNRMC,031240.000,A,2234.2117,N,11434.4215,E,0.00,347.36,100521,,,D*70
$GNRMC,031241.000,A,2234.2117,N,11434.4215,E,0.00,347.36,100521,,,D*71
$GNRMC,031242.000,A,2234.2117,N,11434.4215,E,0.00,347.36,100521,,,D*72
$GNRMC,031243.000,A,2234.2117,N,11434.4215,E,0.00,347.36,100521,,,D*73
$GNRMC,031244.000,A,2234.2117,N,11434.4215,E,0.00,347.36,100521,,,D*74
$GNRMC,031245.000,A,2234.2117,N,11434.4215,E,0.82,312.87,100521,,,D*75
$GNRMC,031246.000,A,2234.2117,N,11434.4215,E,0.00,347.36,100521,,,D*76
$GNRMC,031247.000,A,2234.2117,N,11434.4215,E,0.00,347.36,100521,,,D*77
$GNRMC,031248.000,A,2234.2117,N,11434.4215,E,0.00,347.36,100521,,,D*78
$GNRMC,031249.000,A,2234.2117,N,11434.4215,E,0.85,297.66,100521,,,D*7D
$GNRMC,031250.000,A,2234.2117,N,11434.4215,E,0.00,347.36,100521,,,D*71
$GNRMC,031251.000,A,2234.2117,N,11434.4215,E,0.00,347.36,100521,,,D*70
$GNRMC,031252.000,A,2234.2117,N,11434.4215,E,0.00,347.36,100521,,,D*73
$GNRMC,031253.000,A,2234.2117,N,11434.4215,E,1.06,288.76,100521,,,D*73
$GNRMC,031254.000,A,2234.2117,N,11434.4215,E,0.00,347.36,100521,,,D*75
$GNRMC,031256.000,A,2234.2117,N,11434.4215,E,0.00,347.36,100521,,,D*77
$GNRMC,031257.000,A,2234.2117,N,11434.4215,E,0.00,347.36,100521,,,D*76
$GNRMC,031258.000,A,2234.2117,N,11434.4215,E,0.94,313.39,100521,,,D*7A
$GNRMC,031259.000,A,2234.2117,N,11434.4215,E,0.00,347.36,100521,,,D*78
$GNRMC,031300.000,A,2234.2117,N,11434.4215,E,0.00,347.36,100521,,,D*75
$GNRMC,031302.000,A,2234.2117,N,11434.4215,E,0.00,347.36,100521,,,D*77
$GNRMC,031303.000,A,2234.2117,N,11434.4215,E,1.06,343.89,100521,,,D*71
$GNRMC,031304.000,A,2234.2117,N,11434.4215,E,0.00,347.36,100521,,,D*71
$GNRMC,031305.000,A,2234.2117,N,11434.4215,E,0.00,347.36,100521,,,D*70
$GNRMC,031306.000,A,2234.2117,N,11434.4215,E,0.00,347.36,100521,,,D*73
$GNRMC,031308.000,A,2234.2117,N,11434.4215,E,0.00,347.36,100521,,,D*7D
$GNRMC,031309.000,A,2234.2117,N,11434.4215,E,0.00,347.36,100521,,,D*7C
$GNRMC,031310.000,A,2234.2117,N,11434.4215,E,0.00,347.36,100521,,,D*74
$GNRMC,031311.000,A,2234.2117,N,11434.4215,E,0.00,347.36,100521,,,D*75
$GNRMC,031312.000,A,2234.2117,N,11434.4215,E,0.00,347.36,100521,,,D*76
$GNRMC,031313.000,A,2234.2117,N,11434.4215,E,0.00,347.36,100521,,,D*77
$GNRMC,031314.000,A,2234.2165,N,11434.4190,E,0.66,311.26,100521,,,D*79
$GNRMC,031315.000,A,2234.2166,N,11434.4189,E,0.00,311.26,100521,,,D*73
$GNRMC,031316.000,A,2234.2166,N,11434.4190,E,0.00,311.26,100521,,,D*78
$GNRMC,031317.000,A,2234.2166,N,11434.4189,E,0.00,311.26,100521,,,D*71
$GNRMC,031318.000,A,2234.2166,N,11434.4189,E,1.10,261.97,100521,,,D*72
$GNRMC,031319.000,A,2234.2166,N,11434.4189,E,0.00,311.26,100521,,,D*7F
$GNRMC,031320.000,A,2234.2166,N,11434.4189,E,0.00,311.26,100521,,,D*75
$GNRMC,031321.000,A,2234.2166,N,11434.4189,E,1.02,135.98,100521,,,D*76
$GNRMC,031322.000,A,2234.2165,N,11434.4193,E,1.07,282.17,100521,,,D*70
$GNRMC,031323.000,A,2234.2165,N,11434.4192,E,0.00,282.17,100521,,,D*76
$GNRMC,031324.000,A,2234.2166,N,11434.4191,E,0.00,282.17,100521,,,D*71
$GNRMC,031325.000,A,2234.2167,N,11434.4191,E,0.00,282.17,100521,,,D*71
$GNRMC,031326.000,A,2234.2167,N,11434.4191,E,0.00,282.17,100521,,,D*72
$GNRMC,031327.000,A,2234.2167,N,11434.4191,E,0.00,282.17,100521,,,D*73
$GNRMC,031328.000,A,2234.2167,N,11434.4191,E,0.00,282.17,100521,,,D*7C
$GNRMC,031329.000,A,2234.2167,N,11434.4191,E,0.00,282.17,100521,,,D*7D
$GNRMC,031330.000,A,2234.2167,N,11434.4191,E,0.00,282.17,100521,,,D*75
$GNRMC,031331.000,A,2234.2167,N,11434.4191,E,0.00,282.17,100521,,,D*74
$GNRMC,031332.000,A,2234.2167,N,11434.4191,E,0.00,282.17,100521,,,D*77
$GNRMC,031333.000,A,2234.2167,N,11434.4191,E,0.00,282.17,100521,,,D*76
$GNRMC,031334.000,A,2234.2167,N,11434.4191,E,0.00,282.17,100521,,,D*71
$GNRMC,031335.000,A,2234.2167,N,11434.4191,E,0.00,282.17,100521,,,D*70
$GNRMC,031336.000,A,2234.2167,N,11434.4191,E,0.00,282.17,100521,,,D*73
$GNRMC,031337.000,A,2234.2167,N,11434.4191,E,0.00,282.17,100521,,,D*72
$GNRMC,031338.000,A,2234.2167,N,11434.4191,E,0.00,282.17,100521,,,D*7D
$GNRMC,031339.000,A,2234.2167,N,11434.4191,E,0.00,282.17,100521,,,D*7C
$GNRMC,031340.000,A,2234.2167,N,11434.4191,E,0.00,282.17,100521,,,D*72
$GNRMC,031341.000,A,2234.2167,N,11434.4191,E,0.00,282.17,100521,,,D*73
$GNRMC,031342.000,A,2234.2167,N,11434.4191,E,1.22,298.82,100521,,,D*76
$GNRMC,031343.000,A,2234.2167,N,11434.4191,E,0.00,282.17,100521,,,D*71
$GNRMC,031344.000,A,2234.2167,N,11434.4191,E,0.00,282.17,100521,,,D*76
$GNRMC,031345.000,A,2234.2167,N,11434.4191,E,0.00,282.17,100521,,,D*77
$GNRMC,031346.000,A,2234.2167,N,11434.4191,E,0.00,282.17,100521,,,D*74
$GNRMC,031347.000,A,2234.2167,N,11434.4191,E,0.00,282.17,100521,,,D*75
$GNRMC,031348.000,A,2234.2167,N,11434.4191,E,0.00,282.17,100521,,,D*7A
$GNRMC,031349.000,A,2234.2167,N,11434.4191,E,0.00,282.17,100521,,,D*7B
$GNRMC,031350.000,A,2234.2167,N,11434.4191,E,0.00,282.17,100521,,,D*73
$GNRMC,031351.000,A,2234.2167,N,11434.4191,E,0.00,282.17,100521,,,D*72
$GNRMC,031352.000,A,2234.2167,N,11434.4191,E,0.00,282.17,100521,,,D*71
$GNRMC,031353.000,A,2234.2167,N,11434.4191,E,0.00,282.17,100521,,,D*70
$GNRMC,031354.000,A,2234.2167,N,11434.4191,E,0.00,282.17,100521,,,D*77
$GNRMC,031355.000,A,2234.2167,N,11434.4191,E,0.00,282.17,100521,,,D*76
$GNRMC,031356.000,A,2234.2167,N,11434.4191,E,0.00,282.17,100521,,,D*75
$GNRMC,031357.000,A,2234.2167,N,11434.4191,E,0.00,282.17,100521,,,D*74
$GNRMC,031358.000,A,2234.2167,N,11434.4191,E,0.00,282.17,100521,,,D*7B
$GNRMC,031359.000,A,2234.2167,N,11434.4191,E,0.00,282.17,100521,,,D*7A
$GNRMC,031400.000,A,2234.2167,N,11434.4191,E,0.00,282.17,100521,,,D*71
$GNRMC,031401.000,A,2234.2167,N,11434.4191,E,0.00,282.17,100521,,,D*70
$GNRMC,031403.000,A,2234.2167,N,11434.4191,E,0.00,282.17,100521,,,D*72
$GNRMC,031404.000,A,2234.2167,N,11434.4191,E,0.00,282.17,100521,,,D*75
$GNRMC,031405.000,A,2234.2167,N,11434.4191,E,0.00,282.17,100521,,,D*74
$GNRMC,031406.000,A,2234.2167,N,11434.4191,E,0.00,282.17,100521,,,D*77
$GNRMC,031407.000,A,2234.2167,N,11434.4191,E,0.00,282.17,100521,,,D*76
$GNRMC,031409.000,A,2234.2167,N,11434.4191,E,0.00,282.17,100521,,,D*78
$GNRMC,031410.000,A,2234.2167,N,11434.4191,E,1.22,307.66,100521,,,D*7B
$GNRMC,031411.000,A,2234.2167,N,11434.4191,E,0.00,282.17,100521,,,D*71
$GNRMC,031412.000,A,2234.2167,N,11434.4191,E,0.00,282.17,100521,,,D*72
$GNRMC,031413.000,A,2234.2167,N,11434.4191,E,0.00,282.17,100521,,,D*73
$GNRMC,031415.000,A,2234.2167,N,11434.4191,E,0.00,282.17,100521,,,D*75
$GNRMC,031416.000,A,2234.2167,N,11434.4191,E,0.00,282.17,100521,,,D*76
$GNRMC,031417.000,A,2234.2167,N,11434.4191,E,0.00,282.17,100521,,,D*77
$GNRMC,031418.000,A,2234.2167,N,11434.4191,E,0.00,282.17,100521,,,D*78
$GNRMC,031419.000,A,2234.2167,N,11434.4191,E,0.00,282.17,100521,,,D*79
$GNRMC,031421.000,A,2234.2167,N,11434.4191,E,0.00,282.17,100521,,,D*72
$GNRMC,031422.000,A,2234.2167,N,11434.4191,E,0.00,282.17,100521,,,D*71
$GNRMC,031423.000,A,2234.2167,N,11434.4191,E,0.00,282.17,100521,,,D*70
$GNRMC,031424.000,A,2234.2167,N,11434.4191,E,0.00,282.17,100521,,,D*77
$GNRMC,031425.000,A,2234.2167,N,11434.4191,E,0.00,282.17,100521,,,D*76
$GNRMC,031427.000,A,2234.2167,N,11434.4191,E,0.00,282.17,100521,,,D*74
$GNRMC,031428.000,A,2234.2167,N,11434.4191,E,0.00,282.17,100521,,,D*7B
$GNRMC,031429.000,A,2234.2167,N,11434.4191,E,0.00,282.17,100521,,,D*7A
$GNRMC,031430.000,A,2234.2167,N,11434.4191,E,1.18,303.35,100521,,,D*72
$GNRMC,031431.000,A,2234.2167,N,11434.4191,E,0.00,282.17,100521,,,D*73
$GNRMC,031432.000,A,2234.2167,N,11434.4191,E,0.00,282.17,100521,,,D*70
$GNRMC,031433.000,A,2234.2167,N,11434.4191,E,0.00,282.17,100521,,,D*71
$GNRMC,031434.000,A,2234.2167,N,11434.4191,E,0.00,282.17,100521,,,D*76
$GNRMC,031435.000,A,2234.2167,N,11434.4191,E,0.00,282.17,100521,,,D*77
$GNRMC,031436.000,A,2234.2167,N,11434.4191,E,0.00,282.17,100521,,,D*74
$GNRMC,031437.000,A,2234.2167,N,11434.4191,E,0.00,282.17,100521,,,D*75
$GNRMC,031438.000,A,2234.2167,N,11434.4191,E,0.00,282.17,100521,,,D*7A
$GNRMC,031439.000,A,2234.2167,N,11434.4191,E,1.09,323.06,100521,,,D*79
$GNRMC,031440.000,A,2234.2167,N,11434.4191,E,0.00,282.17,100521,,,D*75
$GNRMC,031441.000,A,2234.2167,N,11434.4191,E,0.00,282.17,100521,,,D*74
$GNRMC,031442.000,A,2234.2167,N,11434.4191,E,0.00,282.17,100521,,,D*77
$GNRMC,031443.000,A,2234.2167,N,11434.4191,E,0.00,282.17,100521,,,D*76
$GNRMC,031444.000,A,2234.2167,N,11434.4191,E,0.00,282.17,100521,,,D*71
$GNRMC,031445.000,A,2234.2167,N,11434.4191,E,0.00,282.17,100521,,,D*70
$GNRMC,031446.000,A,2234.2167,N,11434.4191,E,0.00,282.17,100521,,,D*73
$GNRMC,031447.000,A,2234.2167,N,11434.4191,E,0.00,282.17,100521,,,D*72
$GNRMC,031448.000,A,2234.2167,N,11434.4191,E,0.00,282.17,100521,,,D*7D
$GNRMC,031449.000,A,2234.2167,N,11434.4191,E,0.00,282.17,100521,,,D*7C
$GNRMC,031450.000,A,2234.2167,N,11434.4191,E,1.31,321.44,100521,,,D*79
$GNRMC,031451.000,A,2234.2212,N,11434.4156,E,0.87,2.45,100521,,,D*7D
$GNRMC,031452.000,A,2234.2213,N,11434.4154,E,0.00,2.45,100521,,,D*72
$GNRMC,031453.000,A,2234.2213,N,11434.4152,E,0.00,2.45,100521,,,D*75
$GNRMC,031454.000,A,2234.2214,N,11434.4151,E,0.92,123.85,100521,,,D*73
$GNRMC,031455.000,A,2234.2214,N,11434.4151,E,0.00,123.85,100521,,,D*79
$GNRMC,031456.000,A,2234.2214,N,11434.4151,E,0.00,123.85,100521,,,D*7A
$GNRMC,031457.000,A,2234.2214,N,11434.4151,E,0.79,355.19,100521,,,D*73
$GNRMC,031458.000,A,2234.2219,N,11434.4150,E,0.90,160.53,100521,,,D*7D
$GNRMC,031459.000,A,2234.2218,N,11434.4150,E,0.00,160.53,100521,,,D*74
$GNRMC,031500.000,A,2234.2218,N,11434.4149,E,0.00,160.53,100521,,,D*71
$GNRMC,031501.000,A,2234.2219,N,11434.4149,E,0.00,160.53,100521,,,D*71
$GNRMC,031502.000,A,2234.2219,N,11434.4149,E,0.00,160.53,100521,,,D*72
$GNRMC,031503.000,A,2234.2219,N,11434.4149,E,0.00,160.53,100521,,,D*73
$GNRMC,031504.000,A,2234.2219,N,11434.4149,E,0.00,160.53,100521,,,D*74
$GNRMC,031505.000,A,2234.2219,N,11434.4149,E,0.00,160.53,100521,,,D*75
$GNRMC,031506.000,A,2234.2219,N,11434.4149,E,0.00,160.53,100521,,,D*76
$GNRMC,031507.000,A,2234.2219,N,11434.4149,E,1.28,324.18,100521,,,D*71
$GNRMC,031508.000,A,2234.2219,N,11434.4149,E,0.00,160.53,100521,,,D*78
$GNRMC,031509.000,A,2234.2219,N,11434.4149,E,0.00,160.53,100521,,,D*79
$GNRMC,031510.000,A,2234.2219,N,11434.4149,E,0.00,160.53,100521,,,D*71
$GNRMC,031511.000,A,2234.2219,N,11434.4149,E,0.00,160.53,100521,,,D*70
$GNRMC,031512.000,A,2234.2219,N,11434.4149,E,1.16,301.38,100521,,,D*7D
$GNRMC,031513.000,A,2234.2219,N,11434.4149,E,0.00,160.53,100521,,,D*72
$GNRMC,031515.000,A,2234.2219,N,11434.4149,E,0.00,160.53,100521,,,D*74
$GNRMC,031516.000,A,2234.2219,N,11434.4149,E,0.00,160.53,100521,,,D*77
$GNRMC,031517.000,A,2234.2219,N,11434.4149,E,0.00,160.53,100521,,,D*76
$GNRMC,031518.000,A,2234.2219,N,11434.4149,E,0.00,160.53,100521,,,D*79
$GNRMC,031519.000,A,2234.2219,N,11434.4149,E,0.00,160.53,100521,,,D*78
$GNRMC,031520.000,A,2234.2219,N,11434.4149,E,0.00,160.53,100521,,,D*72
$GNRMC,031521.000,A,2234.2219,N,11434.4149,E,0.00,160.53,100521,,,D*73
$GNRMC,031522.000,A,2234.2219,N,11434.4149,E,0.00,160.53,100521,,,D*70
$GNRMC,031523.000,A,2234.2219,N,11434.4149,E,1.04,292.35,100521,,,D*7A
$GNRMC,031524.000,A,2234.2237,N,11434.4137,E,0.84,74.73,100521,,,D*49
$GNRMC,031526.000,A,2234.2237,N,11434.4138,E,0.00,74.73,100521,,,D*48
$GNRMC,031527.000,A,2234.2237,N,11434.4137,E,0.00,74.73,100521,,,D*46
$GNRMC,031528.000,A,2234.2237,N,11434.4137,E,0.00,74.73,100521,,,D*49
$GNRMC,031529.000,A,2234.2237,N,11434.4137,E,0.00,74.73,100521,,,D*48
$GNRMC,031530.000,A,2234.2237,N,11434.4137,E,0.00,74.73,100521,,,D*40
$GNRMC,031531.000,A,2234.2237,N,11434.4137,E,0.00,74.73,100521,,,D*41
$GNRMC,031532.000,A,2234.2237,N,11434.4137,E,0.00,74.73,100521,,,D*42
$GNRMC,031533.000,A,2234.2237,N,11434.4137,E,0.00,74.73,100521,,,D*43
$GNRMC,031534.000,A,2234.2237,N,11434.4137,E,0.00,74.73,100521,,,D*44
$GNRMC,031535.000,A,2234.2237,N,11434.4137,E,1.60,340.82,100521,,,D*78
$GNRMC,031537.000,A,2234.2237,N,11434.4137,E,0.00,74.73,100521,,,D*47
$GNRMC,031538.000,A,2234.2237,N,11434.4137,E,0.00,74.73,100521,,,D*48
$GNRMC,031539.000,A,2234.2237,N,11434.4137,E,0.00,74.73,100521,,,D*49
$GNRMC,031540.000,A,2234.2237,N,11434.4137,E,0.00,74.73,100521,,,D*47
$GNRMC,031541.000,A,2234.2237,N,11434.4137,E,0.00,74.73,100521,,,D*46
$GNRMC,031542.000,A,2234.2237,N,11434.4137,E,0.00,74.73,100521,,,D*45
$GNRMC,031543.000,A,2234.2237,N,11434.4137,E,1.80,332.94,100521,,,D*75
$GNRMC,031544.000,A,2234.2237,N,11434.4137,E,0.00,74.73,100521,,,D*43
$GNRMC,031545.000,A,2234.2237,N,11434.4137,E,0.00,74.73,100521,,,D*42
$GNRMC,031546.000,A,2234.2237,N,11434.4137,E,0.00,74.73,100521,,,D*41
$GNRMC,031548.000,A,2234.2237,N,11434.4137,E,0.00,74.73,100521,,,D*4F
$GNRMC,031549.000,A,2234.2237,N,11434.4137,E,0.00,74.73,100521,,,D*4E
$GNRMC,031550.000,A,2234.2237,N,11434.4137,E,0.00,74.73,100521,,,D*46
$GNRMC,031551.000,A,2234.2237,N,11434.4137,E,0.00,74.73,100521,,,D*47
$GNRMC,031552.000,A,2234.2237,N,11434.4137,E,0.00,74.73,100521,,,D*44
$GNRMC,031553.000,A,2234.2237,N,11434.4137,E,0.00,74.73,100521,,,D*45
$GNRMC,031554.000,A,2234.2237,N,11434.4137,E,1.03,295.29,100521,,,D*72
$GNRMC,031555.000,A,2234.2237,N,11434.4137,E,0.00,74.73,100521,,,D*43
$GNRMC,031556.000,A,2234.2237,N,11434.4137,E,0.00,74.73,100521,,,D*40
$GNRMC,031557.000,A,2234.2237,N,11434.4137,E,0.00,74.73,100521,,,D*41
$GNRMC,031558.000,A,2234.2237,N,11434.4137,E,0.00,74.73,100521,,,D*4E
$GNRMC,031559.000,A,2234.2237,N,11434.4137,E,0.00,74.73,100521,,,D*4F
$GNRMC,031600.000,A,2234.2237,N,11434.4137,E,0.00,74.73,100521,,,D*40
$GNRMC,031601.000,A,2234.2237,N,11434.4137,E,0.00,74.73,100521,,,D*41
$GNRMC,031602.000,A,2234.2237,N,11434.4137,E,0.00,74.73,100521,,,D*42
$GNRMC,031603.000,A,2234.2237,N,11434.4137,E,1.34,317.89,100521,,,D*76
$GNRMC,031604.000,A,2234.2237,N,11434.4137,E,0.00,74.73,100521,,,D*44
$GNRMC,031605.000,A,2234.2237,N,11434.4137,E,0.00,74.73,100521,,,D*45
$GNRMC,031606.000,A,2234.2237,N,11434.4137,E,0.00,74.73,100521,,,D*46
$GNRMC,031607.000,A,2234.2237,N,11434.4137,E,0.93,7.06,100521,,,D*7B
$GNRMC,031608.000,A,2234.2237,N,11434.4137,E,0.00,74.73,100521,,,D*48
$GNRMC,031609.000,A,2234.2237,N,11434.4137,E,0.00,74.73,100521,,,D*49
$GNRMC,031610.000,A,2234.2237,N,11434.4137,E,0.00,74.73,100521,,,D*41
$GNRMC,031611.000,A,2234.2237,N,11434.4137,E,0.00,74.73,100521,,,D*40
$GNRMC,031612.000,A,2234.2237,N,11434.4137,E,0.00,74.73,100521,,,D*43
$GNRMC,031613.000,A,2234.2237,N,11434.4137,E,0.00,74.73,100521,,,D*42
$GNRMC,031614.000,A,2234.2237,N,11434.4137,E,0.00,74.73,100521,,,D*45
$GNRMC,031615.000,A,2234.2237,N,11434.4137,E,0.00,74.73,100521,,,D*44
$GNRMC,031616.000,A,2234.2237,N,11434.4137,E,0.00,74.73,100521,,,D*47
$GNRMC,031617.000,A,2234.2237,N,11434.4137,E,0.00,74.73,100521,,,D*46
$GNRMC,031618.000,A,2234.2237,N,11434.4137,E,0.79,0.05,100521,,,D*75
$GNRMC,031619.000,A,2234.2237,N,11434.4137,E,0.00,74.73,100521,,,D*48
$GNRMC,031620.000,A,2234.2237,N,11434.4137,E,0.00,74.73,100521,,,D*42
$GNRMC,031621.000,A,2234.2237,N,11434.4137,E,0.00,74.73,100521,,,D*43
$GNRMC,031622.000,A,2234.2237,N,11434.4137,E,0.00,74.73,100521,,,D*40
$GNRMC,031623.000,A,2234.2237,N,11434.4137,E,0.00,74.73,100521,,,D*41
$GNRMC,031624.000,A,2234.2237,N,11434.4137,E,0.00,74.73,100521,,,D*46
$GNRMC,031625.000,A,2234.2237,N,11434.4137,E,0.00,74.73,100521,,,D*47
$GNRMC,031627.000,A,2234.2237,N,11434.4137,E,0.00,74.73,100521,,,D*45
$GNRMC,031628.000,A,2234.2237,N,11434.4137,E,0.79,332.19,100521,,,D*79
$GNRMC,031629.000,A,2234.2237,N,11434.4137,E,0.00,74.73,100521,,,D*4B
$GNRMC,031630.000,A,2234.2237,N,11434.4137,E,0.00,74.73,100521,,,D*43
$GNRMC,031631.000,A,2234.2237,N,11434.4137,E,0.00,74.73,100521,,,D*42
$GNRMC,031632.000,A,2234.2237,N,11434.4137,E,0.00,74.73,100521,,,D*41
$GNRMC,031633.000,A,2234.2237,N,11434.4137,E,0.00,74.73,100521,,,D*40
$GNRMC,031634.000,A,2234.2237,N,11434.4137,E,0.00,74.73,100521,,,D*47
$GNRMC,031635.000,A,2234.2237,N,11434.4137,E,0.00,74.73,100521,,,D*46
$GNRMC,031636.000,A,2234.2237,N,11434.4137,E,0.00,74.73,100521,,,D*45
$GNRMC,031638.000,A,2234.2237,N,11434.4137,E,0.00,74.73,100521,,,D*4B
$GNRMC,031639.000,A,2234.2237,N,11434.4137,E,0.00,74.73,100521,,,D*4A
$GNRMC,031640.000,A,2234.2237,N,11434.4137,E,1.08,33.87,100521,,,D*45
$GNRMC,031641.000,A,2234.2237,N,11434.4137,E,0.00,74.73,100521,,,D*45
$GNRMC,031642.000,A,2234.2237,N,11434.4137,E,0.00,74.73,100521,,,D*46
$GNRMC,031643.000,A,2234.2237,N,11434.4137,E,0.00,74.73,100521,,,D*47
$GNRMC,031644.000,A,2234.2237,N,11434.4137,E,0.00,74.73,100521,,,D*40
$GNRMC,031645.000,A,2234.2237,N,11434.4137,E,0.00,74.73,100521,,,D*41
$GNRMC,031646.000,A,2234.2237,N,11434.4137,E,0.00,74.73,100521,,,D*42
$GNRMC,031647.000,A,2234.2237,N,11434.4137,E,0.00,74.73,100521,,,D*43
$GNRMC,031649.000,A,2234.2237,N,11434.4137,E,0.00,74.73,100521,,,D*4D
$GNRMC,031650.000,A,2234.2237,N,11434.4137,E,0.00,74.73,100521,,,D*45
$GNRMC,031651.000,A,2234.2237,N,11434.4137,E,0.00,74.73,100521,,,D*44
$GNRMC,031652.000,A,2234.2237,N,11434.4137,E,0.00,74.73,100521,,,D*47
$GNRMC,031653.000,A,2234.2237,N,11434.4137,E,0.89,319.96,100521,,,D*74
$GNRMC,031654.000,A,2234.2285,N,11434.4111,E,0.02,319.96,100521,,,D*7D
$GNRMC,031655.000,A,2234.2285,N,11434.4111,E,0.00,319.96,100521,,,D*7E
$GNRMC,031656.000,A,2234.2285,N,11434.4112,E,1.21,330.71,100521,,,D*7E
$GNRMC,031657.000,A,2234.2286,N,11434.4111,E,0.00,330.71,100521,,,D*7D
$GNRMC,031658.000,A,2234.2286,N,11434.4111,E,0.00,330.71,100521,,,D*72
$GNRMC,031700.000,A,2234.2286,N,11434.4111,E,0.00,330.71,100521,,,D*7E
$GNRMC,031701.000,A,2234.2286,N,11434.4111,E,0.88,352.37,100521,,,D*79
$GNRMC,031702.000,A,2234.2286,N,11434.4111,E,0.00,330.71,100521,,,D*7C
$GNRMC,031703.000,A,2234.2286,N,11434.4111,E,0.00,330.71,100521,,,D*7D
$GNRMC,031704.000,A,2234.2286,N,11434.4111,E,0.00,330.71,100521,,,D*7A
$GNRMC,031705.000,A,2234.2286,N,11434.4111,E,1.05,329.36,100521,,,D*74
$GNRMC,031706.000,A,2234.2286,N,11434.4111,E,0.00,330.71,100521,,,D*78
$GNRMC,031707.000,A,2234.2286,N,11434.4111,E,0.00,330.71,100521,,,D*79
$GNRMC,031708.000,A,2234.2286,N,11434.4111,E,0.00,330.71,100521,,,D*76
$GNRMC,031709.000,A,2234.2286,N,11434.4111,E,0.98,346.92,100521,,,D*7A
$GNRMC,031710.000,A,2234.2286,N,11434.4111,E,0.00,330.71,100521,,,D*7F
$GNRMC,031711.000,A,2234.2286,N,11434.4111,E,0.00,330.71,100521,,,D*7E
$GNRMC,031712.000,A,2234.2286,N,11434.4111,E,0.00,330.71,100521,,,D*7D
$GNRMC,031713.000,A,2234.2286,N,11434.4111,E,0.89,19.34,100521,,,D*44
$GNRMC,031714.000,A,2234.2286,N,11434.4111,E,0.00,330.71,100521,,,D*7B
$GNRMC,031715.000,A,2234.2286,N,11434.4111,E,0.00,330.71,100521,,,D*7A
$GNRMC,031717.000,A,2234.2286,N,11434.4111,E,0.00,330.71,100521,,,D*78
$GNRMC,031718.000,A,2234.2286,N,11434.4111,E,0.81,350.44,100521,,,D*7E
$GNRMC,031719.000,A,2234.2286,N,11434.4111,E,0.00,330.71,100521,,,D*76
$GNRMC,031720.000,A,2234.2286,N,11434.4111,E,0.00,330.71,100521,,,D*7C
$GNRMC,031721.000,A,2234.2286,N,11434.4111,E,0.00,330.71,100521,,,D*7D
$GNRMC,031722.000,A,2234.2286,N,11434.4111,E,1.04,303.04,100521,,,D*79
$GNRMC,031723.000,A,2234.2286,N,11434.4111,E,0.00,330.71,100521,,,D*7F
$GNRMC,031724.000,A,2234.2286,N,11434.4111,E,0.00,330.71,100521,,,D*78
$GNRMC,031725.000,A,2234.2286,N,11434.4111,E,0.85,313.02,100521,,,D*71
$GNRMC,031726.000,A,2234.2286,N,11434.4111,E,0.00,330.71,100521,,,D*7A
$GNRMC,031728.000,A,2234.2286,N,11434.4111,E,0.00,330.71,100521,,,D*74
$GNRMC,031729.000,A,2234.2286,N,11434.4111,E,0.82,343.53,100521,,,D*7B
$GNRMC,031730.000,A,2234.2286,N,11434.4111,E,0.00,330.71,100521,,,D*7D
$GNRMC,031731.000,A,2234.2286,N,11434.4111,E,1.28,291.67,100521,,,D*7A
$GNRMC,031732.000,A,2234.2286,N,11434.4111,E,0.00,330.71,100521,,,D*7F
$GNRMC,031733.000,A,2234.2286,N,11434.4111,E,0.00,330.71,100521,,,D*7E
$GNRMC,031734.000,A,2234.2286,N,11434.4111,E,0.00,330.71,100521,,,D*79
$GNRMC,031735.000,A,2234.2286,N,11434.4111,E,0.00,330.71,100521,,,D*78
$GNRMC,031736.000,A,2234.2286,N,11434.4111,E,0.00,330.71,100521,,,D*7B
$GNRMC,031737.000,A,2234.2286,N,11434.4111,E,0.00,330.71,100521,,,D*7A
$GNRMC,031738.000,A,2234.2286,N,11434.4111,E,0.00,330.71,100521,,,D*75
$GNRMC,031739.000,A,2234.2286,N,11434.4111,E,0.00,330.71,100521,,,D*74
$GNRMC,031740.000,A,2234.2286,N,11434.4111,E,0.00,330.71,100521,,,D*7A
$GNRMC,031741.000,A,2234.2286,N,11434.4111,E,0.00,330.71,100521,,,D*7B
$GNRMC,031742.000,A,2234.2286,N,11434.4111,E,0.83,335.56,100521,,,D*73
$GNRMC,031743.000,A,2234.2286,N,11434.4111,E,0.00,330.71,100521,,,D*79
$GNRMC,031744.000,A,2234.2286,N,11434.4111,E,0.00,330.71,100521,,,D*7E
$GNRMC,031745.000,A,2234.2286,N,11434.4111,E,0.00,330.71,100521,,,D*7F
$GNRMC,031746.000,A,2234.2286,N,11434.4111,E,0.00,330.71,100521,,,D*7C
$GNRMC,031747.000,A,2234.2286,N,11434.4111,E,0.00,330.71,100521,,,D*7D
$GNRMC,031748.000,A,2234.2286,N,11434.4111,E,1.12,305.64,100521,,,D*72
$GNRMC,031749.000,A,2234.2286,N,11434.4111,E,0.00,330.71,100521,,,D*73
$GNRMC,031750.000,A,2234.2286,N,11434.4111,E,0.78,330.65,100521,,,D*71
$GNRMC,031751.000,A,2234.2286,N,11434.4111,E,0.00,330.71,100521,,,D*7A
$GNRMC,031752.000,A,2234.2286,N,11434.4111,E,0.00,330.71,100521,,,D*79
$GNRMC,031753.000,A,2234.2286,N,11434.4111,E,0.00,330.71,100521,,,D*78
$GNRMC,031754.000,A,2234.2286,N,11434.4111,E,0.00,330.71,100521,,,D*7F
$GNRMC,031756.000,A,2234.2286,N,11434.4111,E,0.00,330.71,100521,,,D*7D
$GNRMC,031757.000,A,2234.2286,N,11434.4111,E,0.00,330.71,100521,,,D*7C
$GNRMC,031758.000,A,2234.2286,N,11434.4111,E,0.00,330.71,100521,,,D*73
$GNRMC,031759.000,A,2234.2286,N,11434.4111,E,0.00,330.71,100521,,,D*72
$GNRMC,031800.000,A,2234.2286,N,11434.4111,E,0.00,330.71,100521,,,D*71
$GNRMC,031801.000,A,2234.2286,N,11434.4111,E,0.00,330.71,100521,,,D*70
$GNRMC,031802.000,A,2234.2286,N,11434.4111,E,0.84,290.59,100521,,,D*7E
$GNRMC,031803.000,A,2234.2286,N,11434.4111,E,0.00,330.71,100521,,,D*72
$GNRMC,031804.000,A,2234.2286,N,11434.4111,E,0.00,330.71,100521,,,D*75
$GNRMC,031805.000,A,2234.2286,N,11434.4111,E,0.00,330.71,100521,,,D*74
$GNRMC,031807.000,A,2234.2286,N,11434.4111,E,0.00,330.71,100521,,,D*76
$GNRMC,031808.000,A,2234.2286,N,11434.4111,E,0.00,330.71,100521,,,D*79
$GNRMC,031809.000,A,2234.2286,N,11434.4111,E,1.41,331.11,100521,,,D*7B
$GNRMC,031810.000,A,2234.2335,N,11434.4084,E,0.52,331.11,100521,,,D*74
$GNRMC,031811.000,A,2234.2336,N,11434.4083,E,0.00,331.11,100521,,,D*76
$GNRMC,031812.000,A,2234.2336,N,11434.4083,E,0.00,132.86,100521,,,D*7A
$GNRMC,031813.000,A,2234.2337,N,11434.4082,E,0.00,327.20,100521,,,D*71
$GNRMC,031814.000,A,2234.2337,N,11434.4082,E,0.00,327.20,100521,,,D*76
$GNRMC,031815.000,A,2234.2337,N,11434.4082,E,1.15,355.70,100521,,,D*72
$GNRMC,031816.000,A,2234.2337,N,11434.4082,E,0.00,327.20,100521,,,D*74
$GNRMC,031817.000,A,2234.2337,N,11434.4082,E,0.00,327.20,100521,,,D*75
$GNRMC,031818.000,A,2234.2337,N,11434.4082,E,0.00,327.20,100521,,,D*7A
$GNRMC,031819.000,A,2234.2337,N,11434.4082,E,0.00,327.20,100521,,,D*7B
$GNRMC,031820.000,A,2234.2337,N,11434.4082,E,0.00,327.20,100521,,,D*71
$GNRMC,031821.000,A,2234.2337,N,11434.4082,E,0.00,327.20,100521,,,D*70
$GNRMC,031822.000,A,2234.2337,N,11434.4082,E,1.28,300.29,100521,,,D*74
$GNRMC,031824.000,A,2234.2346,N,11434.4075,E,0.00,329.46,100521,,,D*75
$GNRMC,031825.000,A,2234.2347,N,11434.4075,E,0.00,329.46,100521,,,D*75
$GNRMC,031826.000,A,2234.2348,N,11434.4074,E,0.00,329.46,100521,,,D*78
$GNRMC,031827.000,A,2234.2348,N,11434.4074,E,0.00,329.46,100521,,,D*79
$GNRMC,031828.000,A,2234.2348,N,11434.4074,E,0.00,329.46,100521,,,D*76
$GNRMC,031829.000,A,2234.2348,N,11434.4074,E,0.00,329.46,100521,,,D*77
$GNRMC,031830.000,A,2234.2348,N,11434.4074,E,0.00,329.46,100521,,,D*7F
$GNRMC,031831.000,A,2234.2348,N,11434.4074,E,0.00,329.46,100521,,,D*7E
$GNRMC,031832.000,A,2234.2348,N,11434.4074,E,1.25,134.11,100521,,,D*77
$GNRMC,031833.000,A,2234.2348,N,11434.4074,E,0.00,329.46,100521,,,D*7C
$GNRMC,031835.000,A,2234.2348,N,11434.4074,E,0.00,329.46,100521,,,D*7A
$GNRMC,031836.000,A,2234.2348,N,11434.4074,E,0.95,316.05,100521,,,D*7E
$GNRMC,031837.000,A,2234.2348,N,11434.4074,E,0.00,329.46,100521,,,D*78
$GNRMC,031838.000,A,2234.2348,N,11434.4074,E,0.00,329.46,100521,,,D*77
$GNRMC,031839.000,A,2234.2348,N,11434.4074,E,0.00,329.46,100521,,,D*76
$GNRMC,031840.000,A,2234.2348,N,11434.4074,E,0.00,329.46,100521,,,D*78
$GNRMC,031841.000,A,2234.2348,N,11434.4074,E,0.00,329.46,100521,,,D*79
$GNRMC,031842.000,A,2234.2348,N,11434.4074,E,0.00,329.46,100521,,,D*7A
$GNRMC,031843.000,A,2234.2348,N,11434.4074,E,1.24,323.62,100521,,,D*70
$GNRMC,031844.000,A,2234.2348,N,11434.4074,E,0.00,329.46,100521,,,D*7C
$GNRMC,031845.000,A,2234.2348,N,11434.4074,E,0.00,329.46,100521,,,D*7D
$GNRMC,031846.000,A,2234.2348,N,11434.4074,E,0.00,329.46,100521,,,D*7E
$GNRMC,031847.000,A,2234.2348,N,11434.4074,E,1.09,278.22,100521,,,D*70
$GNRMC,031848.000,A,2234.2348,N,11434.4074,E,0.00,329.46,100521,,,D*70
$GNRMC,031849.000,A,2234.2348,N,11434.4074,E,0.00,329.46,100521,,,D*71
$GNRMC,031850.000,A,2234.2348,N,11434.4074,E,0.00,329.46,100521,,,D*79
$GNRMC,031852.000,A,2234.2348,N,11434.4074,E,0.90,325.02,100521,,,D*7E
$GNRMC,031853.000,A,2234.2348,N,11434.4074,E,0.00,329.46,100521,,,D*7A
$GNRMC,031854.000,A,2234.2348,N,11434.4074,E,0.00,329.46,100521,,,D*7D
$GNRMC,031855.000,A,2234.2348,N,11434.4074,E,0.00,329.46,100521,,,D*7C
$GNRMC,031856.000,A,2234.2348,N,11434.4074,E,0.95,322.59,100521,,,D*76
$GNRMC,031857.000,A,2234.2348,N,11434.4074,E,0.00,329.46,100521,,,D*7E
$GNRMC,031858.000,A,2234.2348,N,11434.4074,E,0.00,329.46,100521,,,D*71
$GNRMC,031859.000,A,2234.2348,N,11434.4074,E,0.00,329.46,100521,,,D*70
$GNRMC,031900.000,A,2234.2348,N,11434.4074,E,0.00,329.46,100521,,,D*7D
$GNRMC,031901.000,A,2234.2348,N,11434.4074,E,0.00,329.46,100521,,,D*7C
$GNRMC,031902.000,A,2234.2348,N,11434.4074,E,0.00,329.46,100521,,,D*7F
$GNRMC,031903.000,A,2234.2348,N,11434.4074,E,0.00,329.46,100521,,,D*7E
$GNRMC,031904.000,A,2234.2348,N,11434.4074,E,0.00,329.46,100521,,,D*79
$GNRMC,031905.000,A,2234.2348,N,11434.4074,E,1.16,295.17,100521,,,D*7C
$GNRMC,031906.000,A,2234.2362,N,11434.4061,E,1.28,324.00,100521,,,D*73
$GNRMC,031907.000,A,2234.2363,N,11434.4060,E,0.00,324.00,100521,,,D*79
$GNRMC,031908.000,A,2234.2362,N,11434.4060,E,0.00,324.00,100521,,,D*77
$GNRMC,031909.000,A,2234.2363,N,11434.4060,E,0.00,324.00,100521,,,D*77
$GNRMC,031910.000,A,2234.2363,N,11434.4060,E,0.00,324.00,100521,,,D*7F
$GNRMC,031911.000,A,2234.2363,N,11434.4060,E,0.00,324.00,100521,,,D*7E
$GNRMC,031912.000,A,2234.2363,N,11434.4060,E,0.00,324.00,100521,,,D*7D
$GNRMC,031913.000,A,2234.2363,N,11434.4060,E,0.00,324.00,100521,,,D*7C
$GNRMC,031914.000,A,2234.2363,N,11434.4060,E,0.00,324.00,100521,,,D*7B
$GNRMC,031915.000,A,2234.2363,N,11434.4060,E,0.00,324.00,100521,,,D*7A
$GNRMC,031916.000,A,2234.2363,N,11434.4060,E,0.00,324.00,100521,,,D*79
$GNRMC,031917.000,A,2234.2363,N,11434.4060,E,0.00,324.00,100521,,,D*78
$GNRMC,031918.000,A,2234.2363,N,11434.4060,E,0.00,324.00,100521,,,D*77
$GNRMC,031920.000,A,2234.2363,N,11434.4060,E,0.00,324.00,100521,,,D*7C
$GNRMC,031921.000,A,2234.2363,N,11434.4060,E,0.00,324.00,100521,,,D*7D
$GNRMC,031922.000,A,2234.2363,N,11434.4060,E,0.78,319.43,100521,,,D*78
$GNRMC,031923.000,A,2234.2363,N,11434.4060,E,0.00,324.00,100521,,,D*7F
$GNRMC,031924.000,A,2234.2363,N,11434.4060,E,0.00,324.00,100521,,,D*78
$GNRMC,031925.000,A,2234.2363,N,11434.4060,E,0.00,324.00,100521,,,D*79
$GNRMC,031926.000,A,2234.2363,N,11434.4060,E,0.00,324.00,100521,,,D*7A
$GNRMC,031927.000,A,2234.2363,N,11434.4060,E,0.00,324.00,100521,,,D*7B
$GNRMC,031928.000,A,2234.2363,N,11434.4060,E,0.00,324.00,100521,,,D*74
$GNRMC,031929.000,A,2234.2363,N,11434.4060,E,0.00,324.00,100521,,,D*75
$GNRMC,031930.000,A,2234.2363,N,11434.4060,E,0.00,324.00,100521,,,D*7D
$GNRMC,031931.000,A,2234.2363,N,11434.4060,E,0.00,324.00,100521,,,D*7C
$GNRMC,031932.000,A,2234.2363,N,11434.4060,E,0.00,324.00,100521,,,D*7F
$GNRMC,031933.000,A,2234.2363,N,11434.4060,E,0.00,324.00,100521,,,D*7E
$GNRMC,031934.000,A,2234.2363,N,11434.4060,E,0.91,333.89,100521,,,D*76
$GNRMC,031935.000,A,2234.2363,N,11434.4060,E,0.00,324.00,100521,,,D*78
$GNRMC,031937.000,A,2234.2363,N,11434.4060,E,0.00,324.00,100521,,,D*7A
$GNRMC,031938.000,A,2234.2363,N,11434.4060,E,0.93,303.97,100521,,,D*74
$GNRMC,031939.000,A,2234.2363,N,11434.4060,E,0.00,324.00,100521,,,D*74
$GNRMC,031940.000,A,2234.2363,N,11434.4060,E,0.00,324.00,100521,,,D*7A
$GNRMC,031941.000,A,2234.2363,N,11434.4060,E,0.00,324.00,100521,,,D*7B
$GNRMC,031942.000,A,2234.2363,N,11434.4060,E,0.00,324.00,100521,,,D*78
$GNRMC,031943.000,A,2234.2363,N,11434.4060,E,0.00,324.00,100521,,,D*79
$GNRMC,031944.000,A,2234.2363,N,11434.4060,E,1.08,317.88,100521,,,D*77
$GNRMC,031945.000,A,2234.2363,N,11434.4060,E,0.00,324.00,100521,,,D*7F
$GNRMC,031946.000,A,2234.2363,N,11434.4060,E,0.00,324.00,100521,,,D*7C
$GNRMC,031948.000,A,2234.2363,N,11434.4060,E,0.00,324.00,100521,,,D*72
$GNRMC,031949.000,A,2234.2363,N,11434.4060,E,0.00,324.00,100521,,,D*73
$GNRMC,031950.000,A,2234.2363,N,11434.4060,E,0.00,324.00,100521,,,D*7B
$GNRMC,031951.000,A,2234.2363,N,11434.4060,E,0.00,324.00,100521,,,D*7A
$GNRMC,031952.000,A,2234.2363,N,11434.4060,E,0.00,324.00,100521,,,D*79
$GNRMC,031953.000,A,2234.2363,N,11434.4060,E,0.00,324.00,100521,,,D*78
$GNRMC,031954.000,A,2234.2363,N,11434.4060,E,0.00,324.00,100521,,,D*7F
$GNRMC,031955.000,A,2234.2363,N,11434.4060,E,0.00,324.00,100521,,,D*7E
$GNRMC,031956.000,A,2234.2363,N,11434.4060,E,0.00,324.00,100521,,,D*7D
$GNRMC,031957.000,A,2234.2363,N,11434.4060,E,0.00,324.00,100521,,,D*7C
$GNRMC,031958.000,A,2234.2363,N,11434.4060,E,0.91,326.76,100521,,,D*78
$GNRMC,031959.000,A,2234.2399,N,11434.4035,E,0.79,117.87,100521,,,D*74
$GNRMC,032000.000,A,2234.2398,N,11434.4036,E,0.00,131.99,100521,,,D*75
$GNRMC,032001.000,A,2234.2398,N,11434.4036,E,0.00,131.99,100521,,,D*74
$GNRMC,032002.000,A,2234.2399,N,11434.4036,E,0.00,131.99,100521,,,D*76
$GNRMC,032003.000,A,2234.2399,N,11434.4036,E,0.00,131.99,100521,,,D*77
$GNRMC,032004.000,A,2234.2399,N,11434.4036,E,0.00,131.99,100521,,,D*70
$GNRMC,032005.000,A,2234.2399,N,11434.4036,E,0.00,131.99,100521,,,D*71
$GNRMC,032006.000,A,2234.2399,N,11434.4036,E,0.00,131.99,100521,,,D*72
$GNRMC,032007.000,A,2234.2399,N,11434.4036,E,0.00,131.99,100521,,,D*73
$GNRMC,032008.000,A,2234.2399,N,11434.4036,E,1.04,313.81,100521,,,D*72
$GNRMC,032009.000,A,2234.2399,N,11434.4036,E,0.00,131.99,100521,,,D*7D
$GNRMC,032010.000,A,2234.2399,N,11434.4036,E,0.00,131.99,100521,,,D*75
$GNRMC,032011.000,A,2234.2399,N,11434.4036,E,0.00,131.99,100521,,,D*74
$GNRMC,032012.000,A,2234.2399,N,11434.4036,E,0.00,131.99,100521,,,D*77
$GNRMC,032013.000,A,2234.2399,N,11434.4036,E,0.00,131.99,100521,,,D*76
$GNRMC,032014.000,A,2234.2399,N,11434.4036,E,0.87,345.20,100521,,,D*7D
$GNRMC,032016.000,A,2234.2399,N,11434.4036,E,0.00,131.99,100521,,,D*73
$GNRMC,032017.000,A,2234.2399,N,11434.4036,E,0.00,131.99,100521,,,D*72
$GNRMC,032018.000,A,2234.2399,N,11434.4036,E,0.88,310.72,100521,,,D*79
$GNRMC,032019.000,A,2234.2399,N,11434.4036,E,0.00,131.99,100521,,,D*7C
$GNRMC,032020.000,A,2234.2399,N,11434.4036,E,0.00,131.99,100521,,,D*76
$GNRMC,032021.000,A,2234.2399,N,11434.4036,E,0.00,131.99,100521,,,D*77
$GNRMC,032022.000,A,2234.2399,N,11434.4036,E,0.00,131.99,100521,,,D*74
$GNRMC,032023.000,A,2234.2399,N,11434.4036,E,0.00,131.99,100521,,,D*75
$GNRMC,032024.000,A,2234.2399,N,11434.4036,E,0.00,131.99,100521,,,D*72
$GNRMC,032025.000,A,2234.2399,N,11434.4036,E,0.00,131.99,100521,,,D*73
$GNRMC,032027.000,A,2234.2399,N,11434.4036,E,0.00,131.99,100521,,,D*71
$GNRMC,032028.000,A,2234.2399,N,11434.4036,E,0.00,131.99,100521,,,D*7E
$GNRMC,032029.000,A,2234.2399,N,11434.4036,E,1.23,285.11,100521,,,D*73
$GNRMC,032030.000,A,2234.2399,N,11434.4036,E,0.00,131.99,100521,,,D*77
$GNRMC,032031.000,A,2234.2399,N,11434.4036,E,0.00,131.99,100521,,,D*76
$GNRMC,032032.000,A,2234.2399,N,11434.4036,E,0.00,131.99,100521,,,D*75
$GNRMC,032033.000,A,2234.2399,N,11434.4036,E,0.00,131.99,100521,,,D*74
$GNRMC,032034.000,A,2234.2399,N,11434.4036,E,0.00,131.99,100521,,,D*73
$GNRMC,032035.000,A,2234.2399,N,11434.4036,E,0.00,131.99,100521,,,D*72
$GNRMC,032036.000,A,2234.2399,N,11434.4036,E,0.00,131.99,100521,,,D*71
$GNRMC,032037.000,A,2234.2399,N,11434.4036,E,0.00,131.99,100521,,,D*70
$GNRMC,032038.000,A,2234.2399,N,11434.4036,E,1.09,46.85,100521,,,D*4B
$GNRMC,032039.000,A,2234.2399,N,11434.4036,E,0.00,131.99,100521,,,D*7E
$GNRMC,032040.000,A,2234.2399,N,11434.4036,E,0.82,352.53,100521,,,D*7B
$GNRMC,032041.000,A,2234.2399,N,11434.4036,E,0.00,131.99,100521,,,D*71
$GNRMC,032042.000,A,2234.2399,N,11434.4036,E,0.00,131.99,100521,,,D*72
$GNRMC,032044.000,A,2234.2399,N,11434.4036,E,0.00,131.99,100521,,,D*74
$GNRMC,032045.000,A,2234.2399,N,11434.4036,E,0.00,131.99,100521,,,D*75
$GNRMC,032046.000,A,2234.2399,N,11434.4036,E,0.00,131.99,100521,,,D*76
$GNRMC,032047.000,A,2234.2399,N,11434.4036,E,0.00,131.99,100521,,,D*77
$GNRMC,032048.000,A,2234.2399,N,11434.4036,E,0.00,131.99,100521,,,D*78
$GNRMC,032049.000,A,2234.2399,N,11434.4036,E,0.00,131.99,100521,,,D*79
$GNRMC,032050.000,A,2234.2399,N,11434.4036,E,0.00,131.99,100521,,,D*71
$GNRMC,032051.000,A,2234.2399,N,11434.4036,E,0.00,131.99,100521,,,D*70
$GNRMC,032052.000,A,2234.2399,N,11434.4036,E,0.00,131.99,100521,,,D*73
$GNRMC,032053.000,A,2234.2399,N,11434.4036,E,0.00,131.99,100521,,,D*72
$GNRMC,032055.000,A,2234.2399,N,11434.4036,E,0.00,131.99,100521,,,D*74
$GNRMC,032056.000,A,2234.2399,N,11434.4036,E,0.00,131.99,100521,,,D*77
$GNRMC,032057.000,A,2234.2399,N,11434.4036,E,0.00,131.99,100521,,,D*76
$GNRMC,032058.000,A,2234.2399,N,11434.4036,E,0.00,131.99,100521,,,D*79
$GNRMC,032059.000,A,2234.2399,N,11434.4036,E,0.00,131.99,100521,,,D*78
$GNRMC,032100.000,A,2234.2399,N,11434.4036,E,0.00,131.99,100521,,,D*75
$GNRMC,032101.000,A,2234.2399,N,11434.4036,E,0.00,131.99,100521,,,D*74
$GNRMC,032102.000,A,2234.2399,N,11434.4036,E,0.00,131.99,100521,,,D*77
$GNRMC,032103.000,A,2234.2399,N,11434.4036,E,0.00,131.99,100521,,,D*76
$GNRMC,032104.000,A,2234.2399,N,11434.4036,E,1.35,331.92,100521,,,D*7F
$GNRMC,032105.000,A,2234.2399,N,11434.4036,E,0.00,131.99,100521,,,D*70
$GNRMC,032106.000,A,2234.2399,N,11434.4036,E,0.00,131.99,100521,,,D*73
$GNRMC,032107.000,A,2234.2399,N,11434.4036,E,0.00,131.99,100521,,,D*72
$GNRMC,032108.000,A,2234.2399,N,11434.4036,E,1.36,319.10,100521,,,D*70
$GNRMC,032109.000,A,2234.2399,N,11434.4036,E,0.00,131.99,100521,,,D*7C
$GNRMC,032110.000,A,2234.2399,N,11434.4036,E,0.00,131.99,100521,,,D*74
$GNRMC,032112.000,A,2234.2399,N,11434.4036,E,0.00,131.99,100521,,,D*76
$GNRMC,032113.000,A,2234.2399,N,11434.4036,E,0.00,131.99,100521,,,D*77
$GNRMC,032114.000,A,2234.2399,N,11434.4036,E,0.81,333.90,100521,,,D*70
$GNRMC,032115.000,A,2234.2399,N,11434.4036,E,0.00,131.99,100521,,,D*71
$GNRMC,032116.000,A,2234.2399,N,11434.4036,E,0.00,131.99,100521,,,D*72
$GNRMC,032117.000,A,2234.2399,N,11434.4036,E,0.00,131.99,100521,,,D*73
$GNRMC,032118.000,A,2234.2399,N,11434.4036,E,0.00,131.99,100521,,,D*7C
$GNRMC,032119.000,A,2234.2399,N,11434.4036,E,0.98,332.24,100521,,,D*7B
$GNRMC,032120.000,A,2234.2399,N,11434.4036,E,0.00,131.99,100521,,,D*77
$GNRMC,032121.000,A,2234.2399,N,11434.4036,E,0.00,131.99,100521,,,D*76
$GNRMC,032122.000,A,2234.2399,N,11434.4036,E,0.00,131.99,100521,,,D*75
$GNRMC,032123.000,A,2234.2399,N,11434.4036,E,0.00,131.99,100521,,,D*74
$GNRMC,032124.000,A,2234.2399,N,11434.4036,E,1.47,335.55,100521,,,D*77
$GNRMC,032125.000,A,2234.2399,N,11434.4036,E,0.00,131.99,100521,,,D*72
$GNRMC,032126.000,A,2234.2399,N,11434.4036,E,0.00,131.99,100521,,,D*71
$GNRMC,032127.000,A,2234.2399,N,11434.4036,E,0.00,131.99,100521,,,D*70
$GNRMC,032128.000,A,2234.2443,N,11434.4002,E,1.35,291.67,100521,,,D*77
$GNRMC,032129.000,A,2234.2444,N,11434.4001,E,0.00,291.67,100521,,,D*75
$GNRMC,032130.000,A,2234.2445,N,11434.4000,E,0.00,291.67,100521,,,D*7D
$GNRMC,032131.000,A,2234.2444,N,11434.4002,E,0.00,291.67,100521,,,D*7F
$GNRMC,032132.000,A,2234.2444,N,11434.4002,E,1.37,273.45,100521,,,D*75
$GNRMC,032133.000,A,2234.2446,N,11434.4001,E,1.11,324.24,100521,,,D*75
$GNRMC,032134.000,A,2234.2446,N,11434.4002,E,0.00,324.24,100521,,,D*70
$GNRMC,032135.000,A,2234.2447,N,11434.4001,E,0.00,324.24,100521,,,D*73
$GNRMC,032136.000,A,2234.2447,N,11434.4000,E,1.31,325.40,100521,,,D*71
$GNRMC,032137.000,A,2234.2447,N,11434.4000,E,0.00,325.40,100521,,,D*73
$GNRMC,032138.000,A,2234.2447,N,11434.4000,E,0.00,325.40,100521,,,D*7C
$GNRMC,032139.000,A,2234.2447,N,11434.4000,E,0.86,310.49,100521,,,D*7C
$GNRMC,032140.000,A,2234.2453,N,11434.3995,E,0.79,282.19,100521,,,D*7A
$GNRMC,032141.000,A,2234.2454,N,11434.3993,E,0.00,282.19,100521,,,D*74
$GNRMC,032142.000,A,2234.2454,N,11434.3993,E,0.00,282.19,100521,,,D*77
$GNRMC,032143.000,A,2234.2455,N,11434.3993,E,0.00,282.19,100521,,,D*77
$GNRMC,032144.000,A,2234.2455,N,11434.3993,E,0.00,282.19,100521,,,D*70
$GNRMC,032146.000,A,2234.2455,N,11434.3993,E,0.00,282.19,100521,,,D*72
$GNRMC,032147.000,A,2234.2455,N,11434.3993,E,0.00,282.19,100521,,,D*73
$GNRMC,032148.000,A,2234.2455,N,11434.3993,E,0.00,282.19,100521,,,D*7C
$GNRMC,032149.000,A,2234.2455,N,11434.3993,E,0.00,282.19,100521,,,D*7D
$GNRMC,032150.000,A,2234.2455,N,11434.3993,E,0.00,282.19,100521,,,D*75
$GNRMC,032151.000,A,2234.2455,N,11434.3993,E,0.00,282.19,100521,,,D*74
$GNRMC,032152.000,A,2234.2455,N,11434.3993,E,0.00,282.19,100521,,,D*77
$GNRMC,032153.000,A,2234.2455,N,11434.3993,E,0.00,282.19,100521,,,D*76
$GNRMC,032154.000,A,2234.2455,N,11434.3993,E,0.83,148.29,100521,,,D*7C
$GNRMC,032155.000,A,2234.2455,N,11434.3993,E,0.00,282.19,100521,,,D*70
$GNRMC,032156.000,A,2234.2455,N,11434.3993,E,0.00,282.19,100521,,,D*73
$GNRMC,032157.000,A,2234.2455,N,11434.3993,E,0.00,282.19,100521,,,D*72
$GNRMC,032158.000,A,2234.2455,N,11434.3993,E,0.00,282.19,100521,,,D*7D
$GNRMC,032159.000,A,2234.2455,N,11434.3993,E,1.40,286.90,100521,,,D*7C
$GNRMC,032200.000,A,2234.2455,N,11434.3993,E,0.00,282.19,100521,,,D*73
$GNRMC,032201.000,A,2234.2455,N,11434.3993,E,0.00,282.19,100521,,,D*72
$GNRMC,032203.000,A,2234.2455,N,11434.3993,E,0.00,282.19,100521,,,D*70
$GNRMC,032204.000,A,2234.2455,N,11434.3993,E,0.00,282.19,100521,,,D*77
$GNRMC,032205.000,A,2234.2455,N,11434.3993,E,0.00,282.19,100521,,,D*76
$GNRMC,032206.000,A,2234.2455,N,11434.3993,E,0.00,282.19,100521,,,D*75
$GNRMC,032207.000,A,2234.2455,N,11434.3993,E,0.00,282.19,100521,,,D*74
$GNRMC,032208.000,A,2234.2455,N,11434.3993,E,0.00,282.19,100521,,,D*7B
$GNRMC,032209.000,A,2234.2455,N,11434.3993,E,0.00,282.19,100521,,,D*7A
$GNRMC,032210.000,A,2234.2455,N,11434.3993,E,0.00,282.19,100521,,,D*72
$GNRMC,032211.000,A,2234.2455,N,11434.3993,E,0.00,282.19,100521,,,D*73
$GNRMC,032212.000,A,2234.2455,N,11434.3993,E,0.00,282.19,100521,,,D*70
$GNRMC,032214.000,A,2234.2455,N,11434.3993,E,0.00,282.19,100521,,,D*76
$GNRMC,032215.000,A,2234.2455,N,11434.3993,E,0.00,282.19,100521,,,D*77
$GNRMC,032216.000,A,2234.2455,N,11434.3993,E,0.00,282.19,100521,,,D*74
$GNRMC,032217.000,A,2234.2455,N,11434.3993,E,0.00,282.19,100521,,,D*75
$GNRMC,032218.000,A,2234.2455,N,11434.3993,E,0.00,282.19,100521,,,D*7A
$GNRMC,032219.000,A,2234.2455,N,11434.3993,E,0.00,282.19,100521,,,D*7B
$GNRMC,032220.000,A,2234.2455,N,11434.3993,E,0.00,282.19,100521,,,D*71
$GNRMC,032221.000,A,2234.2455,N,11434.3993,E,0.00,282.19,100521,,,D*70
$GNRMC,032222.000,A,2234.2455,N,11434.3993,E,0.00,282.19,100521,,,D*73
$GNRMC,032223.000,A,2234.2455,N,11434.3993,E,0.00,282.19,100521,,,D*72
$GNRMC,032224.000,A,2234.2455,N,11434.3993,E,0.00,282.19,100521,,,D*75
$GNRMC,032225.000,A,2234.2455,N,11434.3993,E,0.00,282.19,100521,,,D*74
$GNRMC,032226.000,A,2234.2455,N,11434.3993,E,0.00,282.19,100521,,,D*77
$GNRMC,032227.000,A,2234.2455,N,11434.3993,E,0.00,282.19,100521,,,D*76
$GNRMC,032228.000,A,2234.2455,N,11434.3993,E,0.00,282.19,100521,,,D*79
$GNRMC,032229.000,A,2234.2455,N,11434.3993,E,0.00,282.19,100521,,,D*78
$GNRMC,032231.000,A,2234.2455,N,11434.3993,E,0.00,282.19,100521,,,D*71
$GNRMC,032232.000,A,2234.2455,N,11434.3993,E,0.00,282.19,100521,,,D*72
$GNRMC,032233.000,A,2234.2455,N,11434.3993,E,0.00,282.19,100521,,,D*73
$GNRMC,032234.000,A,2234.2455,N,11434.3993,E,1.20,101.56,100521,,,D*74
$GNRMC,032235.000,A,2234.2455,N,11434.3993,E,0.00,282.19,100521,,,D*75
$GNRMC,032236.000,A,2234.2455,N,11434.3993,E,0.00,282.19,100521,,,D*76
$GNRMC,032237.000,A,2234.2455,N,11434.3993,E,0.00,282.19,100521,,,D*77
$GNRMC,032238.000,A,2234.2455,N,11434.3993,E,0.00,282.19,100521,,,D*78
$GNRMC,032239.000,A,2234.2455,N,11434.3993,E,0.00,282.19,100521,,,D*79
$GNRMC,032240.000,A,2234.2455,N,11434.3993,E,0.00,282.19,100521,,,D*77
$GNRMC,032242.000,A,2234.2455,N,11434.3993,E,0.00,282.19,100521,,,D*75
$GNRMC,032243.000,A,2234.2455,N,11434.3993,E,0.00,282.19,100521,,,D*74
$GNRMC,032244.000,A,2234.2455,N,11434.3993,E,0.00,282.19,100521,,,D*73
$GNRMC,032245.000,A,2234.2455,N,11434.3993,E,0.00,282.19,100521,,,D*72
$GNRMC,032246.000,A,2234.2455,N,11434.3993,E,2.31,300.48,100521,,,D*7E
$GNRMC,032247.000,A,2234.2455,N,11434.3993,E,0.00,282.19,100521,,,D*70
$GNRMC,032248.000,A,2234.2455,N,11434.3993,E,0.00,282.19,100521,,,D*7F
$GNRMC,032249.000,A,2234.2455,N,11434.3993,E,0.00,282.19,100521,,,D*7E
$GNRMC,032250.000,A,2234.2455,N,11434.3993,E,0.00,282.19,100521,,,D*76
$GNRMC,032251.000,A,2234.2455,N,11434.3993,E,0.00,282.19,100521,,,D*77
$GNRMC,032252.000,A,2234.2455,N,11434.3993,E,1.23,312.54,100521,,,D*75
$GNRMC,032253.000,A,2234.2455,N,11434.3993,E,0.00,282.19,100521,,,D*75
$GNRMC,032254.000,A,2234.2455,N,11434.3993,E,0.00,282.19,100521,,,D*72
$GNRMC,032255.000,A,2234.2455,N,11434.3993,E,0.00,282.19,100521,,,D*73
$GNRMC,032256.000,A,2234.2455,N,11434.3993,E,0.80,311.29,100521,,,D*70
$GNRMC,032257.000,A,2234.2455,N,11434.3993,E,0.00,282.19,100521,,,D*71
$GNRMC,032259.000,A,2234.2455,N,11434.3993,E,0.00,282.19,100521,,,D*7F
$GNRMC,032300.000,A,2234.2455,N,11434.3993,E,0.00,282.19,100521,,,D*72
$GNRMC,032301.000,A,2234.2455,N,11434.3993,E,0.00,282.19,100521,,,D*73
$GNRMC,032302.000,A,2234.2455,N,11434.3993,E,0.80,296.30,100521,,,D*76
$GNRMC,032303.000,A,2234.2455,N,11434.3993,E,0.00,282.19,100521,,,D*71
$GNRMC,032304.000,A,2234.2455,N,11434.3993,E,0.00,282.19,100521,,,D*76
$GNRMC,032305.000,A,2234.2455,N,11434.3993,E,0.00,282.19,100521,,,D*77
$GNRMC,032306.000,A,2234.2498,N,11434.3957,E,0.93,303.53,100521,,,D*71
$GNRMC,032307.000,A,2234.2500,N,11434.3955,E,0.00,323.20,100521,,,D*7E
$GNRMC,032308.000,A,2234.2500,N,11434.3955,E,0.00,323.20,100521,,,D*71
$GNRMC,032309.000,A,2234.2501,N,11434.3956,E,0.00,323.20,100521,,,D*72
$GNRMC,032310.000,A,2234.2501,N,11434.3956,E,0.00,323.20,100521,,,D*7A
$GNRMC,032311.000,A,2234.2501,N,11434.3956,E,0.00,323.20,100521,,,D*7B
$GNRMC,032312.000,A,2234.2501,N,11434.3956,E,0.00,323.20,100521,,,D*78
$GNRMC,032313.000,A,2234.2501,N,11434.3956,E,0.00,323.20,100521,,,D*79
$GNRMC,032314.000,A,2234.2501,N,11434.3956,E,1.29,339.07,100521,,,D*7A
$GNRMC,032316.000,A,2234.2501,N,11434.3956,E,0.00,323.20,100521,,,D*7C
$GNRMC,032317.000,A,2234.2501,N,11434.3956,E,0.00,323.20,100521,,,D*7D
$GNRMC,032318.000,A,2234.2501,N,11434.3956,E,0.00,323.20,100521,,,D*72
$GNRMC,032319.000,A,2234.2501,N,11434.3956,E,0.00,323.20,100521,,,D*73
$GNRMC,032320.000,A,2234.2501,N,11434.3956,E,0.00,323.20,100521,,,D*79
$GNRMC,032321.000,A,2234.2501,N,11434.3956,E,0.00,323.20,100521,,,D*78
$GNRMC,032322.000,A,2234.2501,N,11434.3956,E,0.00,323.20,100521,,,D*7B
$GNRMC,032323.000,A,2234.2501,N,11434.3956,E,0.00,323.20,100521,,,D*7A
$GNRMC,032324.000,A,2234.2501,N,11434.3956,E,0.00,323.20,100521,,,D*7D
