$GNRMC,030839.200,A,2234.1842,N,11434.4152,E,0.00,92.10,100521,,,D*42
$GNRMC,030839.600,A,2234.1842,N,11434.4152,E,0.00,92.10,100521,,,D*46
$GNRMC,030840.000,A,2234.1842,N,11434.4152,E,0.00,92.10,100521,,,D*4E
$GNRMC,030840.400,A,2234.1842,N,11434.4152,E,0.00,92.10,100521,,,D*4A
$GNRMC,030840.800,A,2234.1842,N,11434.4152,E,0.00,92.10,100521,,,D*46
$GNRMC,030841.200,A,2234.1842,N,11434.4152,E,0.00,92.10,100521,,,D*4D
$GNRMC,030842.000,A,2234.1842,N,11434.4152,E,0.00,92.10,100521,,,D*4C
$GNRMC,030842.400,A,2234.1842,N,11434.4152,E,0.00,92.10,100521,,,D*48
$GNRMC,030842.800,A,2234.1842,N,11434.4152,E,0.00,92.10,100521,,,D*44
$GNRMC,030843.200,A,2234.1842,N,11434.4152,E,0.00,92.10,100521,,,D*4F
$GNRMC,030843.600,A,2234.1842,N,11434.4152,E,0.00,92.10,100521,,,D*4B
$GNRMC,030844.000,A,2234.1842,N,11434.4152,E,0.00,92.10,100521,,,D*4A
$GNRMC,030844.400,A,2234.1842,N,11434.4152,E,0.00,92.10,100521,,,D*4E
$GNRMC,030844.800,A,2234.1842,N,11434.4152,E,0.00,92.10,100521,,,D*42
$GNRMC,030845.200,A,2234.1842,N,11434.4152,E,0.00,92.10,100521,,,D*49
$GNRMC,030845.600,A,2234.1842,N,11434.4152,E,0.00,92.10,100521,,,D*4D
$GNRMC,030846.000,A,2234.1842,N,11434.4152,E,0.99,99.02,100521,,,D*40
$GNRMC,030846.400,A,2234.1842,N,11434.4152,E,0.00,92.10,100521,,,D*4C
$GNRMC,030847.200,A,2234.1842,N,11434.4152,E,0.00,92.10,100521,,,D*4B
$GNRMC,030847.600,A,2234.1842,N,11434.4152,E,0.00,92.10,100521,,,D*4F
$GNRMC,030848.000,A,2234.1842,N,11434.4152,E,0.00,92.10,100521,,,D*46
$GNRMC,030848.400,A,2234.1842,N,11434.4152,E,0.00,92.10,100521,,,D*42
$GNRMC,030848.800,A,2234.1842,N,11434.4152,E,0.00,92.10,100521,,,D*4E
$GNRMC,030849.200,A,2234.1842,N,11434.4152,E,0.00,92.10,100521,,,D*45
$GNRMC,030849.600,A,2234.1842,N,11434.4152,E,0.00,92.10,100521,,,D*41
$GNRMC,030850.000,A,2234.1842,N,11434.4152,E,0.00,92.10,100521,,,D*4F
$GNRMC,030850.400,A,2234.1842,N,11434.4152,E,0.00,92.10,100521,,,D*4B
$GNRMC,030850.800,A,2234.1842,N,11434.4152,E,0.00,92.10,100521,,,D*47
$GNRMC,030851.200,A,2234.1842,N,11434.4152,E,0.00,92.10,100521,,,D*4C
$GNRMC,030851.600,A,2234.1842,N,11434.4152,E,0.00,92.10,100521,,,D*48
$GNRMC,030852.400,A,2234.1842,N,11434.4152,E,0.00,92.10,100521,,,D*49
$GNRMC,030852.800,A,2234.1842,N,11434.4152,E,0.00,92.10,100521,,,D*45
$GNRMC,030853.200,A,2234.1842,N,11434.4152,E,0.00,92.10,100521,,,D*4E
$GNRMC,030853.600,A,2234.1842,N,11434.4152,E,0.00,92.10,100521,,,D*4A
$GNRMC,030854.000,A,2234.1842,N,11434.4152,E,0.00,92.10,100521,,,D*4B
$GNRMC,030854.400,A,2234.1842,N,11434.4152,E,1.18,353.23,100521,,,D*79
$GNRMC,030854.800,A,2234.1842,N,11434.4152,E,0.00,92.10,100521,,,D*43
$GNRMC,030855.200,A,2234.1842,N,11434.4152,E,0.00,92.10,100521,,,D*48
$GNRMC,030855.600,A,2234.1842,N,11434.4152,E,0.00,92.10,100521,,,D*4C
$GNRMC,030856.000,A,2234.1842,N,11434.4152,E,0.00,92.10,100521,,,D*49
$GNRMC,030856.400,A,2234.1842,N,11434.4152,E,0.00,92.10,100521,,,D*4D
$GNRMC,030856.800,A,2234.1842,N,11434.4152,E,0.00,92.10,100521,,,D*41
$GNRMC,030857.600,A,2234.1842,N,11434.4152,E,0.00,92.10,100521,,,D*4E
$GNRMC,030858.000,A,2234.1842,N,11434.4152,E,0.00,92.10,100521,,,D*47
$GNRMC,030858.400,A,2234.1842,N,11434.4152,E,0.00,92.10,100521,,,D*43
$GNRMC,030858.800,A,2234.1842,N,11434.4152,E,0.00,92.10,100521,,,D*4F
$GNRMC,030859.200,A,2234.1842,N,11434.4152,E,0.00,92.10,100521,,,D*44
$GNRMC,030859.600,A,2234.1842,N,11434.4152,E,0.00,92.10,100521,,,D*40
$GNRMC,030900.000,A,2234.1842,N,11434.4152,E,0.79,108.14,100521,,,D*73
$GNRMC,030900.400,A,2234.1842,N,11434.4152,E,0.00,92.10,100521,,,D*4F
$GNRMC,030900.800,A,2234.1842,N,11434.4152,E,0.00,92.10,100521,,,D*43
$GNRMC,030901.200,A,2234.1842,N,11434.4152,E,0.00,92.10,100521,,,D*48
$GNRMC,030901.600,A,2234.1842,N,11434.4152,E,0.00,92.10,100521,,,D*4C
$GNRMC,030902.000,A,2234.1842,N,11434.4152,E,0.00,92.10,100521,,,D*49
$GNRMC,030902.800,A,2234.1842,N,11434.4152,E,0.00,92.10,100521,,,D*41
$GNRMC,030903.200,A,2234.1842,N,11434.4152,E,0.00,92.10,100521,,,D*4A
$GNRMC,030903.600,A,2234.1842,N,11434.4152,E,0.00,92.10,100521,,,D*4E
$GNRMC,030904.000,A,2234.1842,N,11434.4152,E,0.00,92.10,100521,,,D*4F
$GNRMC,030904.400,A,2234.1842,N,11434.4152,E,0.00,92.10,100521,,,D*4B
$GNRMC,030904.800,A,2234.1842,N,11434.4152,E,0.00,92.10,100521,,,D*47
$GNRMC,030905.200,A,2234.1842,N,11434.4152,E,0.00,92.10,100521,,,D*4C
$GNRMC,030905.600,A,2234.1842,N,11434.4152,E,0.00,92.10,100521,,,D*48
$GNRMC,030906.000,A,2234.1842,N,11434.4152,E,0.00,92.10,100521,,,D*4D
$GNRMC,030906.400,A,2234.1842,N,11434.4152,E,0.00,92.10,100521,,,D*49
$GNRMC,030906.800,A,2234.1842,N,11434.4152,E,0.00,92.10,100521,,,D*45
$GNRMC,030907.200,A,2234.1842,N,11434.4152,E,0.00,92.10,100521,,,D*4E
$GNRMC,030908.000,A,2234.1842,N,11434.4152,E,0.00,92.10,100521,,,D*43
$GNRMC,030908.400,A,2234.1842,N,11434.4152,E,0.00,92.10,100521,,,D*47
$GNRMC,030908.800,A,2234.1842,N,11434.4152,E,0.00,92.10,100521,,,D*4B
$GNRMC,030909.200,A,2234.1842,N,11434.4152,E,0.00,92.10,100521,,,D*40
$GNRMC,030909.600,A,2234.1842,N,11434.4152,E,0.00,92.10,100521,,,D*44
$GNRMC,030910.000,A,2234.1842,N,11434.4152,E,0.00,92.10,100521,,,D*4A
$GNRMC,030910.400,A,2234.1842,N,11434.4152,E,0.00,92.10,100521,,,D*4E
$GNRMC,030910.800,A,2234.1842,N,11434.4152,E,0.00,92.10,100521,,,D*42
$GNRMC,030911.200,A,2234.1842,N,11434.4152,E,0.00,92.10,100521,,,D*49
$GNRMC,030911.600,A,2234.1842,N,11434.4152,E,0.00,92.10,100521,,,D*4D
$GNRMC,030912.000,A,2234.1842,N,11434.4152,E,0.00,92.10,100521,,,D*48
$GNRMC,030912.400,A,2234.1842,N,11434.4152,E,0.00,92.10,100521,,,D*4C
$GNRMC,030913.200,A,2234.1842,N,11434.4152,E,0.00,92.10,100521,,,D*4B
$GNRMC,030913.600,A,2234.1842,N,11434.4152,E,0.00,92.10,100521,,,D*4F
$GNRMC,030914.000,A,2234.1842,N,11434.4152,E,0.00,92.10,100521,,,D*4E
$GNRMC,030914.400,A,2234.1842,N,11434.4152,E,0.00,92.10,100521,,,D*4A
$GNRMC,030914.800,A,2234.1842,N,11434.4152,E,0.00,92.10,100521,,,D*46
$GNRMC,030915.200,A,2234.1842,N,11434.4152,E,0.00,92.10,100521,,,D*4D
$GNRMC,030915.600,A,2234.1842,N,11434.4152,E,0.00,92.10,100521,,,D*49
$GNRMC,030916.000,A,2234.1842,N,11434.4152,E,0.00,92.10,100521,,,D*4C
$GNRMC,030916.400,A,2234.1842,N,11434.4152,E,0.00,92.10,100521,,,D*48
$GNRMC,030916.800,A,2234.1842,N,11434.4152,E,0.00,92.10,100521,,,D*44
$GNRMC,030917.200,A,2234.1842,N,11434.4152,E,0.00,92.10,100521,,,D*4F
$GNRMC,030917.600,A,2234.1842,N,11434.4152,E,0.00,92.10,100521,,,D*4B
$GNRMC,030918.400,A,2234.1842,N,11434.4152,E,0.00,92.10,100521,,,D*46
$GNRMC,030918.800,A,2234.1842,N,11434.4152,E,0.00,92.10,100521,,,D*4A
$GNRMC,030919.200,A,2234.1842,N,11434.4152,E,0.00,92.10,100521,,,D*41
$GNRMC,030919.600,A,2234.1842,N,11434.4152,E,0.00,92.10,100521,,,D*45
$GNRMC,030920.000,A,2234.1842,N,11434.4152,E,0.00,92.10,100521,,,D*49
$GNRMC,030920.400,A,2234.1842,N,11434.4152,E,0.00,92.10,100521,,,D*4D
$GNRMC,030920.800,A,2234.1842,N,11434.4152,E,0.00,92.10,100521,,,D*41
$GNRMC,030921.200,A,2234.1842,N,11434.4152,E,0.00,92.10,100521,,,D*4A
$GNRMC,030921.600,A,2234.1842,N,11434.4152,E,0.00,92.10,100521,,,D*4E
$GNRMC,030922.000,A,2234.1842,N,11434.4152,E,0.00,92.10,100521,,,D*4B
$GNRMC,030922.400,A,2234.1842,N,11434.4152,E,0.00,92.10,100521,,,D*4F
$GNRMC,030922.800,A,2234.1842,N,11434.4152,E,0.00,92.10,100521,,,D*43
$GNRMC,030923.600,A,2234.1842,N,11434.4152,E,0.00,92.10,100521,,,D*4C
$GNRMC,030924.000,A,2234.1842,N,11434.4152,E,0.00,92.10,100521,,,D*4D
$GNRMC,030924.400,A,2234.1842,N,11434.4152,E,0.00,92.10,100521,,,D*49
$GNRMC,030924.800,A,2234.1842,N,11434.4152,E,0.00,92.10,100521,,,D*45
$GNRMC,030925.200,A,2234.1842,N,11434.4152,E,0.99,160.59,100521,,,D*7F
$GNRMC,030925.600,A,2234.1842,N,11434.4152,E,0.00,92.10,100521,,,D*4A
$GNRMC,030926.000,A,2234.1842,N,11434.4152,E,0.00,92.10,100521,,,D*4F
$GNRMC,030926.400,A,2234.1842,N,11434.4152,E,0.00,92.10,100521,,,D*4B
$GNRMC,030926.800,A,2234.1842,N,11434.4152,E,0.00,92.10,100521,,,D*47
$GNRMC,030927.200,A,2234.1842,N,11434.4152,E,0.00,92.10,100521,,,D*4C
$GNRMC,030927.600,A,2234.1842,N,11434.4152,E,0.00,92.10,100521,,,D*48
$GNRMC,030928.000,A,2234.1842,N,11434.4152,E,0.00,92.10,100521,,,D*41
$GNRMC,030928.800,A,2234.1842,N,11434.4152,E,0.00,92.10,100521,,,D*49
$GNRMC,030929.200,A,2234.1842,N,11434.4152,E,0.00,92.10,100521,,,D*42
$GNRMC,030929.600,A,2234.1842,N,11434.4152,E,0.00,92.10,100521,,,D*46
$GNRMC,030930.000,A,2234.1842,N,11434.4152,E,0.00,92.10,100521,,,D*48
$GNRMC,030930.400,A,2234.1842,N,11434.4152,E,0.00,92.10,100521,,,D*4C
$GNRMC,030930.800,A,2234.1842,N,11434.4152,E,0.00,92.10,100521,,,D*40
$GNRMC,030931.200,A,2234.1842,N,11434.4152,E,0.00,92.10,100521,,,D*4B
$GNRMC,030931.600,A,2234.1842,N,11434.4152,E,0.00,92.10,100521,,,D*4F
$GNRMC,030932.000,A,2234.1842,N,11434.4152,E,0.00,92.10,100521,,,D*4A
$GNRMC,030932.400,A,2234.1842,N,11434.4152,E,0.00,92.10,100521,,,D*4E
$GNRMC,030932.800,A,2234.1842,N,11434.4152,E,0.00,92.10,100521,,,D*42
$GNRMC,030933.200,A,2234.1842,N,11434.4152,E,0.00,92.10,100521,,,D*49
$GNRMC,030934.000,A,2234.1842,N,11434.4152,E,0.00,92.10,100521,,,D*4C
$GNRMC,030934.400,A,2234.1842,N,11434.4152,E,0.00,92.10,100521,,,D*48
$GNRMC,030934.800,A,2234.1842,N,11434.4152,E,0.00,92.10,100521,,,D*44
$GNRMC,030935.200,A,2234.1842,N,11434.4152,E,0.80,25.13,100521,,,D*48
$GNRMC,030935.600,A,2234.1842,N,11434.4152,E,0.00,92.10,100521,,,D*4B
$GNRMC,030936.000,A,2234.1842,N,11434.4152,E,0.00,92.10,100521,,,D*4E
$GNRMC,030936.400,A,2234.1842,N,11434.4152,E,1.06,332.51,100521,,,D*71
$GNRMC,030936.800,A,2234.1842,N,11434.4152,E,0.00,92.10,100521,,,D*46
$GNRMC,030937.200,A,2234.1842,N,11434.4152,E,0.00,92.10,100521,,,D*4D
$GNRMC,030937.600,A,2234.1842,N,11434.4152,E,0.00,92.10,100521,,,D*49
$GNRMC,030938.000,A,2234.1842,N,11434.4152,E,0.00,92.10,100521,,,D*40
$GNRMC,030938.400,A,2234.1842,N,11434.4152,E,0.00,92.10,100521,,,D*44
$GNRMC,030939.200,A,2234.1842,N,11434.4152,E,0.00,92.10,100521,,,D*43
$GNRMC,030939.600,A,2234.1842,N,11434.4152,E,0.00,92.10,100521,,,D*47
$GNRMC,030940.000,A,2234.1842,N,11434.4152,E,0.00,92.10,100521,,,D*4F
$GNRMC,030940.400,A,2234.1842,N,11434.4152,E,0.00,92.10,100521,,,D*4B
$GNRMC,030940.800,A,2234.1842,N,11434.4152,E,0.00,92.10,100521,,,D*47
$GNRMC,030941.200,A,2234.1842,N,11434.4152,E,0.78,13.46,100521,,,D*49
$GNRMC,030941.600,A,2234.1842,N,11434.4152,E,0.00,92.10,100521,,,D*48
$GNRMC,030942.000,A,2234.1842,N,11434.4152,E,0.00,92.10,100521,,,D*4D
$GNRMC,030942.400,A,2234.1842,N,11434.4152,E,0.00,92.10,100521,,,D*49
$GNRMC,030942.800,A,2234.1842,N,11434.4152,E,0.00,92.10,100521,,,D*45
$GNRMC,030943.200,A,2234.1842,N,11434.4152,E,0.00,92.10,100521,,,D*4E
$GNRMC,030943.600,A,2234.1842,N,11434.4152,E,0.00,92.10,100521,,,D*4A
$GNRMC,030944.000,A,2234.1842,N,11434.4152,E,0.00,92.10,100521,,,D*4B
$GNRMC,030944.400,A,2234.1842,N,11434.4152,E,0.00,92.10,100521,,,D*4F
$GNRMC,030944.800,A,2234.1842,N,11434.4152,E,0.00,92.10,100521,,,D*43
$GNRMC,030945.200,A,2234.1842,N,11434.4152,E,0.00,92.10,100521,,,D*48
$GNRMC,030945.600,A,2234.1842,N,11434.4152,E,0.00,92.10,100521,,,D*4C
$GNRMC,030946.400,A,2234.1842,N,11434.4152,E,0.00,92.10,100521,,,D*4D
$GNRMC,030946.800,A,2234.1842,N,11434.4152,E,0.78,355.47,100521,,,D*74
$GNRMC,030947.200,A,2234.1842,N,11434.4152,E,0.00,92.10,100521,,,D*4A
$GNRMC,030947.600,A,2234.1842,N,11434.4152,E,0.00,92.10,100521,,,D*4E
$GNRMC,030948.000,A,2234.1842,N,11434.4152,E,0.00,92.10,100521,,,D*47
$GNRMC,030948.400,A,2234.1842,N,11434.4152,E,0.00,92.10,100521,,,D*43
$GNRMC,030948.800,A,2234.1842,N,11434.4152,E,0.00,92.10,100521,,,D*4F
$GNRMC,030949.200,A,2234.1842,N,11434.4152,E,0.00,92.10,100521,,,D*44
$GNRMC,030949.600,A,2234.1842,N,11434.4152,E,0.00,92.10,100521,,,D*40
$GNRMC,030950.000,A,2234.1842,N,11434.4152,E,0.00,92.10,100521,,,D*4E
$GNRMC,030950.400,A,2234.1842,N,11434.4152,E,0.00,92.10,100521,,,D*4A
$GNRMC,030950.800,A,2234.1842,N,11434.4152,E,0.00,92.10,100521,,,D*46
$GNRMC,030951.200,A,2234.1842,N,11434.4152,E,0.00,92.10,100521,,,D*4D
$GNRMC,030951.600,A,2234.1842,N,11434.4152,E,0.00,92.10,100521,,,D*49
$GNRMC,030952.000,A,2234.1842,N,11434.4152,E,0.00,92.10,100521,,,D*4C
$GNRMC,030952.400,A,2234.1842,N,11434.4152,E,0.00,92.10,100521,,,D*48
$GNRMC,030952.800,A,2234.1842,N,11434.4152,E,0.00,92.10,100521,,,D*44
$GNRMC,030953.200,A,2234.1842,N,11434.4152,E,0.00,92.10,100521,,,D*4F
$GNRMC,030953.600,A,2234.1842,N,11434.4152,E,0.00,92.10,100521,,,D*4B
$GNRMC,030954.000,A,2234.1842,N,11434.4152,E,0.00,92.10,100521,,,D*4A
$GNRMC,030954.400,A,2234.1842,N,11434.4152,E,0.00,92.10,100521,,,D*4E
$GNRMC,030954.800,A,2234.1842,N,11434.4152,E,0.00,92.10,100521,,,D*42
$GNRMC,030955.200,A,2234.1842,N,11434.4152,E,0.00,92.10,100521,,,D*49
$GNRMC,030955.600,A,2234.1842,N,11434.4152,E,0.00,92.10,100521,,,D*4D
$GNRMC,030956.000,A,2234.1842,N,11434.4152,E,0.00,92.10,100521,,,D*48
$GNRMC,030956.400,A,2234.1842,N,11434.4152,E,0.00,92.10,100521,,,D*4C
$GNRMC,030956.800,A,2234.1842,N,11434.4152,E,0.00,92.10,100521,,,D*40
$GNRMC,030957.200,A,2234.1842,N,11434.4152,E,0.00,92.10,100521,,,D*4B
$GNRMC,030957.600,A,2234.1842,N,11434.4152,E,0.00,92.10,100521,,,D*4F
$GNRMC,030958.000,A,2234.1842,N,11434.4152,E,0.00,92.10,100521,,,D*46
$GNRMC,030958.400,A,2234.1842,N,11434.4152,E,0.00,92.10,100521,,,D*42
$GNRMC,030958.800,A,2234.1842,N,11434.4152,E,0.00,92.10,100521,,,D*4E
$GNRMC,030959.200,A,2234.1842,N,11434.4152,E,0.00,92.10,100521,,,D*45
$GNRMC,031000.000,A,2234.1842,N,11434.4152,E,0.00,92.10,100521,,,D*43
$GNRMC,031000.400,A,2234.1842,N,11434.4152,E,0.00,92.10,100521,,,D*47
$GNRMC,031000.800,A,2234.1842,N,11434.4152,E,0.00,92.10,100521,,,D*4B
$GNRMC,031001.200,A,2234.1842,N,11434.4152,E,0.00,92.10,100521,,,D*40
$GNRMC,031001.600,A,2234.1842,N,11434.4152,E,0.00,92.10,100521,,,D*44
$GNRMC,031002.000,A,2234.1842,N,11434.4152,E,0.00,92.10,100521,,,D*41
$GNRMC,031002.400,A,2234.1842,N,11434.4152,E,0.00,92.10,100521,,,D*45
$GNRMC,031002.800,A,2234.1842,N,11434.4152,E,0.00,92.10,100521,,,D*49
$GNRMC,031003.200,A,2234.1842,N,11434.4152,E,0.00,92.10,100521,,,D*42
$GNRMC,031003.600,A,2234.1896,N,11434.4148,E,0.30,3.62,100521,,,D*7A
$GNRMC,031004.000,A,2234.1896,N,11434.4148,E,0.00,3.62,100521,,,D*78
$GNRMC,031004.400,A,2234.1896,N,11434.4148,E,0.00,291.28,100521,,,D*7B
$GNRMC,031005.200,A,2234.1897,N,11434.4147,E,0.00,291.28,100521,,,D*72
$GNRMC,031005.600,A,2234.1897,N,11434.4147,E,0.00,291.28,100521,,,D*76
$GNRMC,031006.000,A,2234.1897,N,11434.4147,E,0.00,291.28,100521,,,D*73
$GNRMC,031006.400,A,2234.1897,N,11434.4147,E,0.00,291.28,100521,,,D*77
$GNRMC,031006.800,A,2234.1897,N,11434.4147,E,0.00,291.28,100521,,,D*7B
$GNRMC,031007.200,A,2234.1897,N,11434.4147,E,0.00,291.28,100521,,,D*70
$GNRMC,031007.600,A,2234.1897,N,11434.4147,E,0.00,291.28,100521,,,D*74
$GNRMC,031008.000,A,2234.1897,N,11434.4147,E,0.89,332.69,100521,,,D*71
$GNRMC,031008.400,A,2234.1897,N,11434.4147,E,0.00,291.28,100521,,,D*79
$GNRMC,031008.800,A,2234.1897,N,11434.4147,E,0.00,291.28,100521,,,D*75
$GNRMC,031009.200,A,2234.1897,N,11434.4147,E,0.00,291.28,100521,,,D*7E
$GNRMC,031009.600,A,2234.1897,N,11434.4147,E,0.00,291.28,100521,,,D*7A
$GNRMC,031010.400,A,2234.1897,N,11434.4147,E,0.00,291.28,100521,,,D*70
$GNRMC,031010.800,A,2234.1897,N,11434.4147,E,0.00,291.28,100521,,,D*7C
$GNRMC,031011.200,A,2234.1897,N,11434.4147,E,0.00,291.28,100521,,,D*77
$GNRMC,031011.600,A,2234.1897,N,11434.4147,E,0.00,291.28,100521,,,D*73
$GNRMC,031012.000,A,2234.1897,N,11434.4147,E,0.00,291.28,100521,,,D*76
$GNRMC,031012.400,A,2234.1897,N,11434.4147,E,0.00,291.28,100521,,,D*72
$GNRMC,031012.800,A,2234.1897,N,11434.4147,E,0.00,291.28,100521,,,D*7E
$GNRMC,031013.200,A,2234.1897,N,11434.4147,E,0.00,291.28,100521,,,D*75
$GNRMC,031013.600,A,2234.1897,N,11434.4147,E,0.00,291.28,100521,,,D*71
$GNRMC,031014.000,A,2234.1897,N,11434.4147,E,0.00,291.28,100521,,,D*70
$GNRMC,031014.400,A,2234.1897,N,11434.4147,E,0.00,291.28,100521,,,D*74
$GNRMC,031014.800,A,2234.1897,N,11434.4147,E,0.00,291.28,100521,,,D*78
$GNRMC,031015.200,A,2234.1897,N,11434.4147,E,0.00,291.28,100521,,,D*73
$GNRMC,031015.600,A,2234.1897,N,11434.4147,E,0.00,291.28,100521,,,D*77
$GNRMC,031016.000,A,2234.1897,N,11434.4147,E,0.00,291.28,100521,,,D*72
$GNRMC,031016.400,A,2234.1897,N,11434.4147,E,0.00,291.28,100521,,,D*76
$GNRMC,031016.800,A,2234.1897,N,11434.4147,E,0.00,291.28,100521,,,D*7A
$GNRMC,031017.200,A,2234.1897,N,11434.4147,E,0.00,291.28,100521,,,D*71
$GNRMC,031017.600,A,2234.1897,N,11434.4147,E,0.00,291.28,100521,,,D*75
$GNRMC,031018.000,A,2234.1897,N,11434.4147,E,0.00,291.28,100521,,,D*7C
$GNRMC,031018.800,A,2234.1897,N,11434.4147,E,0.00,291.28,100521,,,D*74
$GNRMC,031019.200,A,2234.1897,N,11434.4147,E,0.00,291.28,100521,,,D*7F
$GNRMC,031019.600,A,2234.1897,N,11434.4147,E,0.00,291.28,100521,,,D*7B
$GNRMC,031020.000,A,2234.1897,N,11434.4147,E,0.00,291.28,100521,,,D*77
$GNRMC,031020.400,A,2234.1897,N,11434.4147,E,0.00,291.28,100521,,,D*73
$GNRMC,031020.800,A,2234.1897,N,11434.4147,E,0.00,291.28,100521,,,D*7F
$GNRMC,031021.200,A,2234.1897,N,11434.4147,E,0.00,291.28,100521,,,D*74
$GNRMC,031021.600,A,2234.1897,N,11434.4147,E,0.00,291.28,100521,,,D*70
$GNRMC,031022.000,A,2234.1897,N,11434.4147,E,0.00,291.28,100521,,,D*75
$GNRMC,031022.400,A,2234.1897,N,11434.4147,E,0.00,291.28,100521,,,D*71
$GNRMC,031022.800,A,2234.1897,N,11434.4147,E,0.00,291.28,100521,,,D*7D
$GNRMC,031023.200,A,2234.1897,N,11434.4147,E,0.00,291.28,100521,,,D*76
$GNRMC,031024.000,A,2234.1897,N,11434.4147,E,0.00,291.28,100521,,,D*73
$GNRMC,031024.400,A,2234.1897,N,11434.4147,E,0.00,291.28,100521,,,D*77
$GNRMC,031024.800,A,2234.1897,N,11434.4147,E,0.00,291.28,100521,,,D*7B
$GNRMC,031025.200,A,2234.1897,N,11434.4147,E,0.00,291.28,100521,,,D*70
$GNRMC,031025.600,A,2234.1897,N,11434.4147,E,0.00,291.28,100521,,,D*74
$GNRMC,031026.000,A,2234.1897,N,11434.4147,E,0.00,291.28,100521,,,D*71
$GNRMC,031026.400,A,2234.1897,N,11434.4147,E,0.00,291.28,100521,,,D*75
$GNRMC,031026.800,A,2234.1897,N,11434.4147,E,0.00,291.28,100521,,,D*79
$GNRMC,031027.200,A,2234.1897,N,11434.4147,E,0.00,291.28,100521,,,D*72
$GNRMC,031027.600,A,2234.1897,N,11434.4147,E,0.00,291.28,100521,,,D*76
$GNRMC,031028.000,A,2234.1897,N,11434.4147,E,0.00,291.28,100521,,,D*7F
$GNRMC,031028.400,A,2234.1897,N,11434.4147,E,0.00,291.28,100521,,,D*7B
$GNRMC,031029.200,A,2234.1897,N,11434.4147,E,0.00,291.28,100521,,,D*7C
$GNRMC,031029.600,A,2234.1897,N,11434.4147,E,0.00,291.28,100521,,,D*78
$GNRMC,031030.000,A,2234.1897,N,11434.4147,E,0.00,291.28,100521,,,D*76
$GNRMC,031030.400,A,2234.1897,N,11434.4147,E,0.00,291.28,100521,,,D*72
$GNRMC,031030.800,A,2234.1897,N,11434.4147,E,0.00,291.28,100521,,,D*7E
$GNRMC,031031.200,A,2234.1897,N,11434.4147,E,0.00,291.28,100521,,,D*75
$GNRMC,031031.600,A,2234.1897,N,11434.4147,E,0.00,291.28,100521,,,D*71
$GNRMC,031032.000,A,2234.1897,N,11434.4147,E,0.00,291.28,100521,,,D*74
$GNRMC,031032.400,A,2234.1897,N,11434.4147,E,1.43,303.80,100521,,,D*7E
$GNRMC,031032.800,A,2234.1914,N,11434.4149,E,1.10,285.08,100521,,,D*7F
$GNRMC,031033.200,A,2234.1915,N,11434.4149,E,0.80,306.43,100521,,,D*78
$GNRMC,031033.600,A,2234.1915,N,11434.4149,E,0.00,326.23,100521,,,D*70
$GNRMC,031034.000,A,2234.1915,N,11434.4149,E,0.00,326.23,100521,,,D*71
$GNRMC,031034.400,A,2234.1916,N,11434.4148,E,0.00,326.23,100521,,,D*77
$GNRMC,031034.800,A,2234.1916,N,11434.4148,E,0.85,349.85,100521,,,D*73
$GNRMC,031035.200,A,2234.1916,N,11434.4148,E,0.00,326.23,100521,,,D*70
$GNRMC,031035.600,A,2234.1916,N,11434.4148,E,0.00,326.23,100521,,,D*74
$GNRMC,031036.000,A,2234.1916,N,11434.4148,E,0.00,326.23,100521,,,D*71
$GNRMC,031036.400,A,2234.1916,N,11434.4148,E,0.00,326.23,100521,,,D*75
$GNRMC,031036.800,A,2234.1916,N,11434.4148,E,0.00,326.23,100521,,,D*79
$GNRMC,031037.600,A,2234.1916,N,11434.4148,E,0.00,326.23,100521,,,D*76
$GNRMC,031038.000,A,2234.1916,N,11434.4148,E,0.00,326.23,100521,,,D*7F
$GNRMC,031038.400,A,2234.1916,N,11434.4148,E,0.00,326.23,100521,,,D*7B
$GNRMC,031038.800,A,2234.1916,N,11434.4148,E,0.00,326.23,100521,,,D*77
$GNRMC,031039.200,A,2234.1916,N,11434.4148,E,0.00,326.23,100521,,,D*7C
$GNRMC,031039.600,A,2234.1916,N,11434.4148,E,0.00,326.23,100521,,,D*78
$GNRMC,031040.000,A,2234.1916,N,11434.4148,E,0.00,326.23,100521,,,D*70
$GNRMC,031040.400,A,2234.1916,N,11434.4148,E,0.00,326.23,100521,,,D*74
$GNRMC,031040.800,A,2234.1916,N,11434.4148,E,0.00,326.23,100521,,,D*78
$GNRMC,031041.200,A,2234.1916,N,11434.4148,E,0.00,326.23,100521,,,D*73
$GNRMC,031041.600,A,2234.1916,N,11434.4148,E,0.00,326.23,100521,,,D*77
$GNRMC,031042.000,A,2234.1916,N,11434.4148,E,0.00,326.23,100521,,,D*72
$GNRMC,031042.400,A,2234.1916,N,11434.4148,E,0.00,326.23,100521,,,D*76
$GNRMC,031042.800,A,2234.1916,N,11434.4148,E,0.00,326.23,100521,,,D*7A
$GNRMC,031043.200,A,2234.1916,N,11434.4148,E,0.00,326.23,100521,,,D*71
$GNRMC,031043.600,A,2234.1916,N,11434.4148,E,0.00,326.23,100521,,,D*75
$GNRMC,031044.000,A,2234.1916,N,11434.4148,E,0.00,326.23,100521,,,D*74
$GNRMC,031044.400,A,2234.1916,N,11434.4148,E,0.00,326.23,100521,,,D*70
$GNRMC,031044.800,A,2234.1916,N,11434.4148,E,0.00,326.23,100521,,,D*7C
$GNRMC,031045.200,A,2234.1916,N,11434.4148,E,0.00,326.23,100521,,,D*77
$GNRMC,031046.000,A,2234.1916,N,11434.4148,E,0.00,326.23,100521,,,D*76
$GNRMC,031046.400,A,2234.1916,N,11434.4148,E,0.00,326.23,100521,,,D*72
$GNRMC,031046.800,A,2234.1916,N,11434.4148,E,0.00,326.23,100521,,,D*7E
$GNRMC,031047.200,A,2234.1916,N,11434.4148,E,0.00,326.23,100521,,,D*75
$GNRMC,031047.600,A,2234.1916,N,11434.4148,E,0.00,326.23,100521,,,D*71
$GNRMC,031048.000,A,2234.1916,N,11434.4148,E,0.00,326.23,100521,,,D*78
$GNRMC,031048.400,A,2234.1916,N,11434.4148,E,0.00,326.23,100521,,,D*7C
$GNRMC,031048.800,A,2234.1916,N,11434.4148,E,0.00,326.23,100521,,,D*70
$GNRMC,031049.200,A,2234.1916,N,11434.4148,E,0.00,326.23,100521,,,D*7B
$GNRMC,031049.600,A,2234.1916,N,11434.4148,E,0.00,326.23,100521,,,D*7F
$GNRMC,031050.000,A,2234.1916,N,11434.4148,E,0.00,326.23,100521,,,D*71
$GNRMC,031050.400,A,2234.1916,N,11434.4148,E,0.00,326.23,100521,,,D*75
$GNRMC,031050.800,A,2234.1916,N,11434.4148,E,0.00,326.23,100521,,,D*79
$GNRMC,031051.200,A,2234.1916,N,11434.4148,E,0.00,326.23,100521,,,D*72
$GNRMC,031051.600,A,2234.1916,N,11434.4148,E,0.00,326.23,100521,,,D*76
$GNRMC,031052.000,A,2234.1916,N,11434.4148,E,0.00,326.23,100521,,,D*73
$GNRMC,031052.400,A,2234.1916,N,11434.4148,E,0.00,326.23,100521,,,D*77
$GNRMC,031052.800,A,2234.1916,N,11434.4148,E,0.00,326.23,100521,,,D*7B
$GNRMC,031053.200,A,2234.1916,N,11434.4148,E,0.00,326.23,100521,,,D*70
$GNRMC,031053.600,A,2234.1916,N,11434.4148,E,0.00,326.23,100521,,,D*74
$GNRMC,031054.400,A,2234.1916,N,11434.4148,E,0.00,326.23,100521,,,D*71
$GNRMC,031054.800,A,2234.1916,N,11434.4148,E,0.00,326.23,100521,,,D*7D
$GNRMC,031055.200,A,2234.1916,N,11434.4148,E,0.00,326.23,100521,,,D*76
$GNRMC,031055.600,A,2234.1916,N,11434.4148,E,0.00,326.23,100521,,,D*72
$GNRMC,031056.000,A,2234.1916,N,11434.4148,E,0.00,326.23,100521,,,D*77
$GNRMC,031056.400,A,2234.1916,N,11434.4148,E,0.00,326.23,100521,,,D*73
$GNRMC,031056.800,A,2234.1916,N,11434.4148,E,0.00,326.23,100521,,,D*7F
$GNRMC,031057.200,A,2234.1916,N,11434.4148,E,0.00,326.23,100521,,,D*74
$GNRMC,031057.600,A,2234.1916,N,11434.4148,E,0.00,326.23,100521,,,D*70
$GNRMC,031058.000,A,2234.1916,N,11434.4148,E,0.00,326.23,100521,,,D*79
$GNRMC,031058.400,A,2234.1916,N,11434.4148,E,0.00,326.23,100521,,,D*7D
$GNRMC,031058.800,A,2234.1916,N,11434.4148,E,0.00,326.23,100521,,,D*71
$GNRMC,031059.600,A,2234.1916,N,11434.4148,E,0.00,326.23,100521,,,D*7E
$GNRMC,031100.000,A,2234.1916,N,11434.4148,E,0.00,326.23,100521,,,D*75
$GNRMC,031100.400,A,2234.1916,N,11434.4148,E,0.00,326.23,100521,,,D*71
$GNRMC,031100.800,A,2234.1916,N,11434.4148,E,0.00,326.23,100521,,,D*7D
$GNRMC,031101.200,A,2234.1916,N,11434.4148,E,0.00,326.23,100521,,,D*76
$GNRMC,031101.600,A,2234.1916,N,11434.4148,E,0.00,326.23,100521,,,D*72
$GNRMC,031102.000,A,2234.1916,N,11434.4148,E,0.00,326.23,100521,,,D*77
$GNRMC,031102.800,A,2234.1916,N,11434.4148,E,0.00,326.23,100521,,,D*7F
$GNRMC,031103.200,A,2234.1916,N,11434.4148,E,0.00,326.23,100521,,,D*74
$GNRMC,031103.600,A,2234.1916,N,11434.4148,E,0.00,326.23,100521,,,D*70
$GNRMC,031104.000,A,2234.1916,N,11434.4148,E,0.00,326.23,100521,,,D*71
$GNRMC,031104.400,A,2234.1916,N,11434.4148,E,0.00,326.23,100521,,,D*75
$GNRMC,031104.800,A,2234.1916,N,11434.4148,E,0.00,326.23,100521,,,D*79
$GNRMC,031105.200,A,2234.1916,N,11434.4148,E,0.00,326.23,100521,,,D*72
$GNRMC,031105.600,A,2234.1916,N,11434.4148,E,0.00,326.23,100521,,,D*76
$GNRMC,031106.000,A,2234.1916,N,11434.4148,E,0.00,326.23,100521,,,D*73
$GNRMC,031106.400,A,2234.1916,N,11434.4148,E,0.00,326.23,100521,,,D*77
$GNRMC,031106.800,A,2234.1916,N,11434.4148,E,0.00,326.23,100521,,,D*7B
$GNRMC,031107.200,A,2234.1916,N,11434.4148,E,0.00,326.23,100521,,,D*70
$GNRMC,031108.000,A,2234.1916,N,11434.4148,E,0.00,326.23,100521,,,D*7D
$GNRMC,031108.400,A,2234.1916,N,11434.4148,E,0.00,326.23,100521,,,D*79
$GNRMC,031108.800,A,2234.1916,N,11434.4148,E,0.00,326.23,100521,,,D*75
$GNRMC,031109.200,A,2234.1916,N,11434.4148,E,0.00,326.23,100521,,,D*7E
$GNRMC,031109.600,A,2234.1916,N,11434.4148,E,0.00,326.23,100521,,,D*7A
$GNRMC,031110.000,A,2234.1916,N,11434.4148,E,0.00,326.23,100521,,,D*74
$GNRMC,031110.400,A,2234.1916,N,11434.4148,E,0.00,326.23,100521,,,D*70
$GNRMC,031110.800,A,2234.1916,N,11434.4148,E,0.00,326.23,100521,,,D*7C
$GNRMC,031111.200,A,2234.1916,N,11434.4148,E,0.00,326.23,100521,,,D*77
$GNRMC,031111.600,A,2234.1916,N,11434.4148,E,0.00,326.23,100521,,,D*73
$GNRMC,031112.000,A,2234.1916,N,11434.4148,E,0.00,326.23,100521,,,D*76
$GNRMC,031112.400,A,2234.1916,N,11434.4148,E,0.00,326.23,100521,,,D*72
$GNRMC,031112.800,A,2234.1916,N,11434.4148,E,0.00,326.23,100521,,,D*7E
$GNRMC,031113.200,A,2234.1916,N,11434.4148,E,0.00,326.23,100521,,,D*75
$GNRMC,031113.600,A,2234.1916,N,11434.4148,E,0.00,326.23,100521,,,D*71
$GNRMC,031114.000,A,2234.1916,N,11434.4148,E,0.00,326.23,100521,,,D*70
$GNRMC,031114.400,A,2234.1916,N,11434.4148,E,0.00,326.23,100521,,,D*74
$GNRMC,031114.800,A,2234.1916,N,11434.4148,E,0.00,326.23,100521,,,D*78
$GNRMC,031115.200,A,2234.1916,N,11434.4148,E,0.00,326.23,100521,,,D*73
$GNRMC,031115.600,A,2234.1916,N,11434.4148,E,0.00,326.23,100521,,,D*77
$GNRMC,031116.400,A,2234.1916,N,11434.4148,E,0.00,326.23,100521,,,D*76
$GNRMC,031116.800,A,2234.1916,N,11434.4148,E,0.00,326.23,100521,,,D*7A
$GNRMC,031117.200,A,2234.1916,N,11434.4148,E,0.87,105.06,100521,,,D*7A
$GNRMC,031117.600,A,2234.1916,N,11434.4148,E,0.00,326.23,100521,,,D*75
$GNRMC,031118.000,A,2234.1916,N,11434.4148,E,0.00,326.23,100521,,,D*7C
$GNRMC,031118.400,A,2234.1916,N,11434.4148,E,0.00,326.23,100521,,,D*78
$GNRMC,031118.800,A,2234.1916,N,11434.4148,E,0.00,326.23,100521,,,D*74
$GNRMC,031119.200,A,2234.1916,N,11434.4148,E,0.00,326.23,100521,,,D*7F
$GNRMC,031119.600,A,2234.1916,N,11434.4148,E,0.00,326.23,100521,,,D*7B
$GNRMC,031120.000,A,2234.1916,N,11434.4148,E,0.00,326.23,100521,,,D*77
$GNRMC,031120.400,A,2234.1916,N,11434.4148,E,0.00,326.23,100521,,,D*73
$GNRMC,031120.800,A,2234.1916,N,11434.4148,E,0.00,326.23,100521,,,D*7F
$GNRMC,031121.600,A,2234.1916,N,11434.4148,E,0.00,326.23,100521,,,D*70
$GNRMC,031122.000,A,2234.1916,N,11434.4148,E,0.00,326.23,100521,,,D*75
$GNRMC,031122.400,A,2234.1916,N,11434.4148,E,0.00,326.23,100521,,,D*71
$GNRMC,031122.800,A,2234.1916,N,11434.4148,E,0.87,303.78,100521,,,D*7B
$GNRMC,031123.200,A,2234.1916,N,11434.4148,E,0.00,326.23,100521,,,D*76
$GNRMC,031123.600,A,2234.1916,N,11434.4148,E,0.00,326.23,100521,,,D*72
$GNRMC,031124.000,A,2234.1916,N,11434.4148,E,0.00,326.23,100521,,,D*73
$GNRMC,031124.400,A,2234.1916,N,11434.4148,E,0.00,326.23,100521,,,D*77
$GNRMC,031124.800,A,2234.1916,N,11434.4148,E,0.00,326.23,100521,,,D*7B
$GNRMC,031125.200,A,2234.1916,N,11434.4148,E,0.00,326.23,100521,,,D*70
$GNRMC,031125.600,A,2234.1916,N,11434.4148,E,0.00,326.23,100521,,,D*74
$GNRMC,031126.000,A,2234.1916,N,11434.4148,E,0.00,326.23,100521,,,D*71
$GNRMC,031126.400,A,2234.1916,N,11434.4148,E,0.00,326.23,100521,,,D*75
$GNRMC,031126.800,A,2234.1916,N,11434.4148,E,0.00,326.23,100521,,,D*79
$GNRMC,031127.200,A,2234.1916,N,11434.4148,E,0.00,326.23,100521,,,D*72
$GNRMC,031127.600,A,2234.1916,N,11434.4148,E,0.00,326.23,100521,,,D*76
$GNRMC,031128.000,A,2234.1916,N,11434.4148,E,0.00,326.23,100521,,,D*7F
$GNRMC,031128.400,A,2234.1916,N,11434.4148,E,0.00,326.23,100521,,,D*7B
$GNRMC,031128.800,A,2234.1916,N,11434.4148,E,0.00,326.23,100521,,,D*77
$GNRMC,031129.200,A,2234.1916,N,11434.4148,E,0.00,326.23,100521,,,D*7C
$GNRMC,031130.000,A,2234.1916,N,11434.4148,E,0.00,326.23,100521,,,D*76
$GNRMC,031130.400,A,2234.1916,N,11434.4148,E,0.00,326.23,100521,,,D*72
$GNRMC,031130.800,A,2234.1916,N,11434.4148,E,0.00,326.23,100521,,,D*7E
$GNRMC,031131.200,A,2234.1916,N,11434.4148,E,0.00,326.23,100521,,,D*75
$GNRMC,031131.600,A,2234.1916,N,11434.4148,E,0.00,326.23,100521,,,D*71
$GNRMC,031132.000,A,2234.1916,N,11434.4148,E,0.00,326.23,100521,,,D*74
$GNRMC,031132.400,A,2234.1916,N,11434.4148,E,0.00,326.23,100521,,,D*70
$GNRMC,031132.800,A,2234.1916,N,11434.4148,E,0.00,326.23,100521,,,D*7C
$GNRMC,031133.200,A,2234.1916,N,11434.4148,E,0.00,326.23,100521,,,D*77
$GNRMC,031133.600,A,2234.1916,N,11434.4148,E,0.00,326.23,100521,,,D*73
$GNRMC,031134.000,A,2234.1916,N,11434.4148,E,0.00,326.23,100521,,,D*72
$GNRMC,031134.400,A,2234.1916,N,11434.4148,E,0.00,326.23,100521,,,D*76
$GNRMC,031135.200,A,2234.1916,N,11434.4148,E,0.00,326.23,100521,,,D*71
$GNRMC,031135.600,A,2234.1916,N,11434.4148,E,0.00,326.23,100521,,,D*75
$GNRMC,031136.000,A,2234.1916,N,11434.4148,E,0.00,326.23,100521,,,D*70
$GNRMC,031136.400,A,2234.1916,N,11434.4148,E,0.00,326.23,100521,,,D*74
$GNRMC,031136.800,A,2234.1916,N,11434.4148,E,0.00,326.23,100521,,,D*78
$GNRMC,031137.200,A,2234.1916,N,11434.4148,E,0.00,326.23,100521,,,D*73
$GNRMC,031137.600,A,2234.1916,N,11434.4148,E,0.00,326.23,100521,,,D*77
$GNRMC,031138.000,A,2234.1916,N,11434.4148,E,0.00,326.23,100521,,,D*7E
$GNRMC,031138.400,A,2234.1916,N,11434.4148,E,0.00,326.23,100521,,,D*7A
$GNRMC,031138.800,A,2234.1916,N,11434.4148,E,0.00,326.23,100521,,,D*76
$GNRMC,031139.200,A,2234.1916,N,11434.4148,E,0.00,326.23,100521,,,D*7D
$GNRMC,031139.600,A,2234.1916,N,11434.4148,E,0.00,326.23,100521,,,D*79
$GNRMC,031140.000,A,2234.1916,N,11434.4148,E,0.00,326.23,100521,,,D*71
$GNRMC,031140.400,A,2234.1916,N,11434.4148,E,0.00,326.23,100521,,,D*75
$GNRMC,031140.800,A,2234.1916,N,11434.4148,E,0.00,326.23,100521,,,D*79
$GNRMC,031141.200,A,2234.1916,N,11434.4148,E,0.00,326.23,100521,,,D*72
$GNRMC,031141.600,A,2234.1916,N,11434.4148,E,0.00,326.23,100521,,,D*76
$GNRMC,031142.000,A,2234.1916,N,11434.4148,E,0.00,326.23,100521,,,D*73
$GNRMC,031142.400,A,2234.1916,N,11434.4148,E,0.00,326.23,100521,,,D*77
$GNRMC,031142.800,A,2234.1916,N,11434.4148,E,0.00,326.23,100521,,,D*7B
$GNRMC,031143.600,A,2234.1916,N,11434.4148,E,0.00,326.23,100521,,,D*74
$GNRMC,031144.000,A,2234.1916,N,11434.4148,E,0.00,326.23,100521,,,D*75
$GNRMC,031144.400,A,2234.1916,N,11434.4148,E,0.00,326.23,100521,,,D*71
$GNRMC,031144.800,A,2234.1916,N,11434.4148,E,0.00,326.23,100521,,,D*7D
$GNRMC,031145.200,A,2234.1916,N,11434.4148,E,0.00,326.23,100521,,,D*76
$GNRMC,031145.600,A,2234.1916,N,11434.4148,E,0.00,326.23,100521,,,D*72
$GNRMC,031146.000,A,2234.1916,N,11434.4148,E,0.00,326.23,100521,,,D*77
$GNRMC,031146.400,A,2234.1916,N,11434.4148,E,0.00,326.23,100521,,,D*73
$GNRMC,031146.800,A,2234.1916,N,11434.4148,E,0.00,326.23,100521,,,D*7F
$GNRMC,031147.200,A,2234.1916,N,11434.4148,E,0.00,326.23,100521,,,D*74
$GNRMC,031147.600,A,2234.1916,N,11434.4148,E,0.00,326.23,100521,,,D*70
$GNRMC,031148.000,A,2234.1916,N,11434.4148,E,0.00,326.23,100521,,,D*79
$GNRMC,031148.800,A,2234.1970,N,11434.4141,E,0.54,23.60,100521,,,D*48
$GNRMC,031149.200,A,2234.1971,N,11434.4141,E,0.00,23.60,100521,,,D*43
$GNRMC,031149.600,A,2234.1971,N,11434.4141,E,0.00,23.60,100521,,,D*47
$GNRMC,031150.000,A,2234.1972,N,11434.4140,E,0.00,23.60,100521,,,D*4B
$GNRMC,031150.400,A,2234.1972,N,11434.4140,E,0.00,23.60,100521,,,D*4F
$GNRMC,031150.800,A,2234.1972,N,11434.4140,E,0.00,23.60,100521,,,D*43
$GNRMC,031151.200,A,2234.1972,N,11434.4140,E,0.00,23.60,100521,,,D*48
$GNRMC,031151.600,A,2234.1972,N,11434.4140,E,0.00,23.60,100521,,,D*4C
$GNRMC,031152.000,A,2234.1972,N,11434.4140,E,0.00,23.60,100521,,,D*49
$GNRMC,031152.400,A,2234.1972,N,11434.4140,E,0.00,23.60,100521,,,D*4D
$GNRMC,031152.800,A,2234.1972,N,11434.4140,E,0.00,23.60,100521,,,D*41
$GNRMC,031153.200,A,2234.1972,N,11434.4140,E,0.00,23.60,100521,,,D*4A
$GNRMC,031154.000,A,2234.1972,N,11434.4140,E,0.00,23.60,100521,,,D*4F
$GNRMC,031154.400,A,2234.1972,N,11434.4140,E,0.00,23.60,100521,,,D*4B
$GNRMC,031154.800,A,2234.1972,N,11434.4140,E,0.00,23.60,100521,,,D*47
$GNRMC,031155.200,A,2234.1972,N,11434.4140,E,0.00,23.60,100521,,,D*4C
$GNRMC,031155.600,A,2234.1972,N,11434.4140,E,0.00,23.60,100521,,,D*48
$GNRMC,031156.000,A,2234.1972,N,11434.4140,E,0.00,23.60,100521,,,D*4D
$GNRMC,031156.400,A,2234.1972,N,11434.4140,E,0.00,23.60,100521,,,D*49
$GNRMC,031156.800,A,2234.1972,N,11434.4140,E,0.00,23.60,100521,,,D*45
$GNRMC,031157.200,A,2234.1972,N,11434.4140,E,0.00,23.60,100521,,,D*4E
$GNRMC,031157.600,A,2234.1972,N,11434.4140,E,0.00,23.60,100521,,,D*4A
$GNRMC,031158.000,A,2234.1972,N,11434.4140,E,0.00,23.60,100521,,,D*43
$GNRMC,031158.400,A,2234.1972,N,11434.4140,E,0.00,23.60,100521,,,D*47
$GNRMC,031159.200,A,2234.1972,N,11434.4140,E,0.00,23.60,100521,,,D*40
$GNRMC,031159.600,A,2234.1972,N,11434.4140,E,0.00,23.60,100521,,,D*44
$GNRMC,031200.000,A,2234.1972,N,11434.4140,E,0.00,23.60,100521,,,D*4D
$GNRMC,031200.400,A,2234.1972,N,11434.4140,E,0.00,23.60,100521,,,D*49
$GNRMC,031200.800,A,2234.1972,N,11434.4140,E,0.00,23.60,100521,,,D*45
$GNRMC,031201.200,A,2234.1972,N,11434.4140,E,0.00,23.60,100521,,,D*4E
$GNRMC,031201.600,A,2234.1972,N,11434.4140,E,0.00,23.60,100521,,,D*4A
$GNRMC,031202.000,A,2234.1972,N,11434.4140,E,0.00,23.60,100521,,,D*4F
$GNRMC,031202.400,A,2234.1972,N,11434.4140,E,0.00,23.60,100521,,,D*4B
$GNRMC,031202.800,A,2234.1972,N,11434.4140,E,0.00,23.60,100521,,,D*47
$GNRMC,031203.200,A,2234.1972,N,11434.4140,E,0.00,23.60,100521,,,D*4C
$GNRMC,031203.600,A,2234.1972,N,11434.4140,E,0.00,23.60,100521,,,D*48
$GNRMC,031204.400,A,2234.1972,N,11434.4140,E,0.00,23.60,100521,,,D*4D
$GNRMC,031204.800,A,2234.1972,N,11434.4140,E,0.00,23.60,100521,,,D*41
$GNRMC,031205.200,A,2234.1972,N,11434.4140,E,0.00,23.60,100521,,,D*4A
$GNRMC,031205.600,A,2234.1972,N,11434.4140,E,0.00,23.60,100521,,,D*4E
$GNRMC,031206.000,A,2234.1972,N,11434.4140,E,0.00,23.60,100521,,,D*4B
$GNRMC,031206.400,A,2234.1972,N,11434.4140,E,0.00,23.60,100521,,,D*4F
$GNRMC,031206.800,A,2234.1972,N,11434.4140,E,0.00,23.60,100521,,,D*43
$GNRMC,031207.200,A,2234.1972,N,11434.4140,E,0.00,23.60,100521,,,D*48
$GNRMC,031207.600,A,2234.1972,N,11434.4140,E,0.00,23.60,100521,,,D*4C
$GNRMC,031208.000,A,2234.1972,N,11434.4140,E,0.00,23.60,100521,,,D*45
$GNRMC,031208.400,A,2234.1972,N,11434.4140,E,0.00,23.60,100521,,,D*41
$GNRMC,031208.800,A,2234.1972,N,11434.4140,E,0.00,23.60,100521,,,D*4D
$GNRMC,031209.200,A,2234.1972,N,11434.4140,E,0.00,23.60,100521,,,D*46
$GNRMC,031209.600,A,2234.1972,N,11434.4140,E,0.00,23.60,100521,,,D*42
$GNRMC,031210.000,A,2234.1972,N,11434.4140,E,0.00,23.60,100521,,,D*4C
$GNRMC,031210.400,A,2234.1972,N,11434.4140,E,0.00,23.60,100521,,,D*48
$GNRMC,031210.800,A,2234.1972,N,11434.4140,E,0.00,23.60,100521,,,D*44
$GNRMC,031211.200,A,2234.1972,N,11434.4140,E,0.00,23.60,100521,,,D*4F
$GNRMC,031211.600,A,2234.1972,N,11434.4140,E,0.00,23.60,100521,,,D*4B
$GNRMC,031212.000,A,2234.1972,N,11434.4140,E,0.00,23.60,100521,,,D*4E
$GNRMC,031212.400,A,2234.1972,N,11434.4140,E,0.00,23.60,100521,,,D*4A
$GNRMC,031212.800,A,2234.1972,N,11434.4140,E,0.00,23.60,100521,,,D*46
$GNRMC,031213.200,A,2234.1972,N,11434.4140,E,0.00,23.60,100521,,,D*4D
$GNRMC,031213.600,A,2234.1972,N,11434.4140,E,0.00,23.60,100521,,,D*49
$GNRMC,031214.000,A,2234.1972,N,11434.4140,E,0.00,23.60,100521,,,D*48
$GNRMC,031214.800,A,2234.1972,N,11434.4140,E,0.00,23.60,100521,,,D*40
$GNRMC,031215.200,A,2234.1972,N,11434.4140,E,0.00,23.60,100521,,,D*4B
$GNRMC,031215.600,A,2234.1972,N,11434.4140,E,0.00,23.60,100521,,,D*4F
$GNRMC,031216.000,A,2234.1972,N,11434.4140,E,0.00,23.60,100521,,,D*4A
$GNRMC,031216.400,A,2234.1972,N,11434.4140,E,0.00,23.60,100521,,,D*4E
$GNRMC,031216.800,A,2234.1972,N,11434.4140,E,0.00,23.60,100521,,,D*42
$GNRMC,031217.200,A,2234.1972,N,11434.4140,E,0.00,23.60,100521,,,D*49
$GNRMC,031217.600,A,2234.1972,N,11434.4140,E,0.00,23.60,100521,,,D*4D
$GNRMC,031218.000,A,2234.1972,N,11434.4140,E,0.00,23.60,100521,,,D*44
$GNRMC,031218.400,A,2234.1972,N,11434.4140,E,0.00,23.60,100521,,,D*40
$GNRMC,031218.800,A,2234.1972,N,11434.4140,E,1.31,146.22,100521,,,D*7B
$GNRMC,031219.200,A,2234.1985,N,11434.4136,E,1.09,160.61,100521,,,D*71
$GNRMC,031219.600,A,2234.1986,N,11434.4136,E,0.00,160.61,100521,,,D*7E
$GNRMC,031220.000,A,2234.1986,N,11434.4135,E,0.00,160.61,100521,,,D*71
$GNRMC,031220.400,A,2234.1985,N,11434.4135,E,0.00,160.61,100521,,,D*76
$GNRMC,031220.800,A,2234.1985,N,11434.4135,E,0.00,160.61,100521,,,D*7A
$GNRMC,031221.200,A,2234.1985,N,11434.4135,E,0.00,160.61,100521,,,D*71
$GNRMC,031221.600,A,2234.1985,N,11434.4135,E,1.05,349.48,100521,,,D*73
$GNRMC,031222.000,A,2234.1985,N,11434.4135,E,0.00,160.61,100521,,,D*70
$GNRMC,031222.400,A,2234.1985,N,11434.4135,E,0.00,160.61,100521,,,D*74
$GNRMC,031223.200,A,2234.1985,N,11434.4135,E,0.00,160.61,100521,,,D*73
$GNRMC,031223.600,A,2234.1985,N,11434.4135,E,0.00,160.61,100521,,,D*77
$GNRMC,031224.000,A,2234.1985,N,11434.4135,E,0.00,160.61,100521,,,D*76
$GNRMC,031224.400,A,2234.1985,N,11434.4135,E,0.00,160.61,100521,,,D*72
$GNRMC,031224.800,A,2234.1985,N,11434.4135,E,0.00,160.61,100521,,,D*7E
$GNRMC,031225.200,A,2234.1985,N,11434.4135,E,0.00,160.61,100521,,,D*75
$GNRMC,031225.600,A,2234.1985,N,11434.4135,E,0.00,160.61,100521,,,D*71
$GNRMC,031226.000,A,2234.1985,N,11434.4135,E,0.00,160.61,100521,,,D*74
$GNRMC,031226.400,A,2234.1985,N,11434.4135,E,0.00,160.61,100521,,,D*70
$GNRMC,031226.800,A,2234.1985,N,11434.4135,E,0.00,160.61,100521,,,D*7C
$GNRMC,031227.200,A,2234.1985,N,11434.4135,E,0.00,160.61,100521,,,D*77
$GNRMC,031227.600,A,2234.1985,N,11434.4135,E,0.00,160.61,100521,,,D*73
$GNRMC,031228.400,A,2234.1985,N,11434.4135,E,0.00,160.61,100521,,,D*7E
$GNRMC,031228.800,A,2234.1985,N,11434.4135,E,0.00,160.61,100521,,,D*72
$GNRMC,031229.200,A,2234.1985,N,11434.4135,E,0.00,160.61,100521,,,D*79
$GNRMC,031229.600,A,2234.1985,N,11434.4135,E,0.00,160.61,100521,,,D*7D
$GNRMC,031230.000,A,2234.1985,N,11434.4135,E,0.00,160.61,100521,,,D*73
$GNRMC,031230.400,A,2234.1985,N,11434.4135,E,0.00,160.61,100521,,,D*77
$GNRMC,031230.800,A,2234.1985,N,11434.4135,E,0.00,160.61,100521,,,D*7B
$GNRMC,031231.200,A,2234.1985,N,11434.4135,E,0.00,160.61,100521,,,D*70
$GNRMC,031231.600,A,2234.1985,N,11434.4135,E,0.00,160.61,100521,,,D*74
$GNRMC,031232.000,A,2234.1985,N,11434.4135,E,0.00,160.61,100521,,,D*71
$GNRMC,031232.400,A,2234.1985,N,11434.4135,E,0.00,160.61,100521,,,D*75
$GNRMC,031232.800,A,2234.1985,N,11434.4135,E,0.00,160.61,100521,,,D*79
$GNRMC,031233.200,A,2234.1985,N,11434.4135,E,0.00,160.61,100521,,,D*72
$GNRMC,031233.600,A,2234.1985,N,11434.4135,E,0.00,160.61,100521,,,D*76
$GNRMC,031234.000,A,2234.1985,N,11434.4135,E,0.00,160.61,100521,,,D*77
$GNRMC,031234.400,A,2234.1985,N,11434.4135,E,0.00,160.61,100521,,,D*73
$GNRMC,031234.800,A,2234.1985,N,11434.4135,E,0.00,160.61,100521,,,D*7F
$GNRMC,031235.200,A,2234.1985,N,11434.4135,E,0.00,160.61,100521,,,D*74
$GNRMC,031235.600,A,2234.1985,N,11434.4135,E,0.00,160.61,100521,,,D*70
$GNRMC,031236.000,A,2234.1985,N,11434.4135,E,0.00,160.61,100521,,,D*75
$GNRMC,031236.800,A,2234.1985,N,11434.4135,E,0.00,160.61,100521,,,D*7D
$GNRMC,031237.200,A,2234.1985,N,11434.4135,E,0.00,160.61,100521,,,D*76
$GNRMC,031237.600,A,2234.1985,N,11434.4135,E,0.00,160.61,100521,,,D*72
$GNRMC,031238.000,A,2234.1985,N,11434.4135,E,0.00,160.61,100521,,,D*7B
$GNRMC,031238.400,A,2234.1985,N,11434.4135,E,0.00,160.61,100521,,,D*7F
$GNRMC,031238.800,A,2234.1985,N,11434.4135,E,0.00,160.61,100521,,,D*73
$GNRMC,031239.200,A,2234.1985,N,11434.4135,E,0.00,160.61,100521,,,D*78
$GNRMC,031239.600,A,2234.1985,N,11434.4135,E,0.00,160.61,100521,,,D*7C
$GNRMC,031240.000,A,2234.1985,N,11434.4135,E,0.00,160.61,100521,,,D*74
$GNRMC,031240.400,A,2234.1985,N,11434.4135,E,0.00,160.61,100521,,,D*70
$GNRMC,031240.800,A,2234.1985,N,11434.4135,E,0.00,160.61,100521,,,D*7C
$GNRMC,031241.200,A,2234.1985,N,11434.4135,E,0.00,160.61,100521,,,D*77
$GNRMC,031242.000,A,2234.1985,N,11434.4135,E,0.00,160.61,100521,,,D*76
$GNRMC,031242.400,A,2234.1985,N,11434.4135,E,0.00,160.61,100521,,,D*72
$GNRMC,031242.800,A,2234.1985,N,11434.4135,E,0.00,160.61,100521,,,D*7E
$GNRMC,031243.200,A,2234.1985,N,11434.4135,E,0.00,160.61,100521,,,D*75
$GNRMC,031243.600,A,2234.1985,N,11434.4135,E,0.00,160.61,100521,,,D*71
$GNRMC,031244.000,A,2234.1985,N,11434.4135,E,0.00,160.61,100521,,,D*70
$GNRMC,031244.400,A,2234.1985,N,11434.4135,E,0.00,160.61,100521,,,D*74
$GNRMC,031244.800,A,2234.1985,N,11434.4135,E,0.00,160.61,100521,,,D*78
$GNRMC,031245.200,A,2234.1985,N,11434.4135,E,0.00,160.61,100521,,,D*73
$GNRMC,031245.600,A,2234.1985,N,11434.4135,E,0.00,160.61,100521,,,D*77
$GNRMC,031246.000,A,2234.1985,N,11434.4135,E,0.00,160.61,100521,,,D*72
$GNRMC,031246.400,A,2234.1985,N,11434.4135,E,0.00,160.61,100521,,,D*76
$GNRMC,031247.200,A,2234.1985,N,11434.4135,E,0.00,160.61,100521,,,D*71
$GNRMC,031247.600,A,2234.1985,N,11434.4135,E,0.00,160.61,100521,,,D*75
$GNRMC,031248.000,A,2234.1985,N,11434.4135,E,0.00,160.61,100521,,,D*7C
$GNRMC,031248.400,A,2234.1985,N,11434.4135,E,0.00,160.61,100521,,,D*78
$GNRMC,031248.800,A,2234.1985,N,11434.4135,E,0.00,160.61,100521,,,D*74
$GNRMC,031249.200,A,2234.1985,N,11434.4135,E,1.01,8.17,100521,,,D*71
$GNRMC,031249.600,A,2234.1985,N,11434.4135,E,0.00,160.61,100521,,,D*7B
$GNRMC,031250.000,A,2234.1985,N,11434.4135,E,0.00,160.61,100521,,,D*75
$GNRMC,031250.400,A,2234.1985,N,11434.4135,E,0.00,160.61,100521,,,D*71
$GNRMC,031250.800,A,2234.1985,N,11434.4135,E,0.84,0.06,100521,,,D*77
$GNRMC,031251.200,A,2234.1985,N,11434.4135,E,0.00,160.61,100521,,,D*76
$GNRMC,031251.600,A,2234.1985,N,11434.4135,E,0.00,160.61,100521,,,D*72
$GNRMC,031252.400,A,2234.1985,N,11434.4135,E,0.00,160.61,100521,,,D*73
$GNRMC,031252.800,A,2234.1985,N,11434.4135,E,0.00,160.61,100521,,,D*7F
$GNRMC,031253.200,A,2234.1985,N,11434.4135,E,0.00,160.61,100521,,,D*74
$GNRMC,031253.600,A,2234.1985,N,11434.4135,E,1.03,310.55,100521,,,D*70
$GNRMC,031254.000,A,2234.2018,N,11434.4138,E,0.92,315.43,100521,,,D*79
$GNRMC,031254.400,A,2234.2019,N,11434.4138,E,0.81,319.26,100521,,,D*71
$GNRMC,031254.800,A,2234.2019,N,11434.4138,E,0.00,326.04,100521,,,D*78
$GNRMC,031255.200,A,2234.2020,N,11434.4138,E,0.00,326.04,100521,,,D*79
$GNRMC,031255.600,A,2234.2020,N,11434.4138,E,0.00,326.04,100521,,,D*7D
$GNRMC,031256.000,A,2234.2020,N,11434.4138,E,0.00,326.04,100521,,,D*78
$GNRMC,031256.400,A,2234.2020,N,11434.4138,E,0.00,326.04,100521,,,D*7C
$GNRMC,031256.800,A,2234.2020,N,11434.4138,E,0.00,326.04,100521,,,D*70
$GNRMC,031257.200,A,2234.2020,N,11434.4138,E,0.00,326.04,100521,,,D*7B
$GNRMC,031257.600,A,2234.2020,N,11434.4138,E,0.00,326.04,100521,,,D*7F
$GNRMC,031258.000,A,2234.2020,N,11434.4138,E,0.00,326.04,100521,,,D*76
$GNRMC,031258.400,A,2234.2020,N,11434.4138,E,0.00,326.04,100521,,,D*72
$GNRMC,031258.800,A,2234.2020,N,11434.4138,E,0.00,326.04,100521,,,D*7E
$GNRMC,031259.200,A,2234.2020,N,11434.4138,E,0.00,326.04,100521,,,D*75
$GNRMC,031259.600,A,2234.2020,N,11434.4138,E,0.00,326.04,100521,,,D*71
$GNRMC,031300.000,A,2234.2020,N,11434.4138,E,0.00,326.04,100521,,,D*7A
$GNRMC,031300.800,A,2234.2020,N,11434.4138,E,0.00,326.04,100521,,,D*72
$GNRMC,031301.200,A,2234.2020,N,11434.4138,E,0.00,326.04,100521,,,D*79
$GNRMC,031301.600,A,2234.2020,N,11434.4138,E,0.00,326.04,100521,,,D*7D
$GNRMC,031302.000,A,2234.2020,N,11434.4138,E,0.00,326.04,100521,,,D*78
$GNRMC,031302.400,A,2234.2020,N,11434.4138,E,0.00,326.04,100521,,,D*7C
$GNRMC,031302.800,A,2234.2020,N,11434.4138,E,0.00,326.04,100521,,,D*70
$GNRMC,031303.200,A,2234.2020,N,11434.4138,E,0.00,326.04,100521,,,D*7B
$GNRMC,031303.600,A,2234.2020,N,11434.4138,E,0.00,326.04,100521,,,D*7F
$GNRMC,031304.000,A,2234.2020,N,11434.4138,E,0.00,326.04,100521,,,D*7E
$GNRMC,031304.400,A,2234.2020,N,11434.4138,E,0.00,326.04,100521,,,D*7A
$GNRMC,031304.800,A,2234.2020,N,11434.4138,E,0.00,326.04,100521,,,D*76
$GNRMC,031305.200,A,2234.2020,N,11434.4138,E,0.00,326.04,100521,,,D*7D
$GNRMC,031306.000,A,2234.2020,N,11434.4138,E,0.00,326.04,100521,,,D*7C
$GNRMC,031306.400,A,2234.2020,N,11434.4138,E,0.00,326.04,100521,,,D*78
$GNRMC,031306.800,A,2234.2020,N,11434.4138,E,0.00,326.04,100521,,,D*74
$GNRMC,031307.200,A,2234.2020,N,11434.4138,E,0.00,326.04,100521,,,D*7F
$GNRMC,031307.600,A,2234.2020,N,11434.4138,E,0.00,326.04,100521,,,D*7B
$GNRMC,031308.000,A,2234.2020,N,11434.4138,E,0.00,326.04,100521,,,D*72
$GNRMC,031308.400,A,2234.2020,N,11434.4138,E,0.00,326.04,100521,,,D*76
$GNRMC,031308.800,A,2234.2020,N,11434.4138,E,0.00,326.04,100521,,,D*7A
$GNRMC,031309.200,A,2234.2020,N,11434.4138,E,0.00,326.04,100521,,,D*71
$GNRMC,031309.600,A,2234.2020,N,11434.4138,E,0.00,326.04,100521,,,D*75
$GNRMC,031310.000,A,2234.2020,N,11434.4138,E,0.00,326.04,100521,,,D*7B
$GNRMC,031310.400,A,2234.2020,N,11434.4138,E,0.00,326.04,100521,,,D*7F
$GNRMC,031310.800,A,2234.2020,N,11434.4138,E,0.00,326.04,100521,,,D*73
$GNRMC,031311.200,A,2234.2020,N,11434.4138,E,0.00,326.04,100521,,,D*78
$GNRMC,031311.600,A,2234.2020,N,11434.4138,E,0.00,326.04,100521,,,D*7C
$GNRMC,031312.000,A,2234.2020,N,11434.4138,E,0.00,326.04,100521,,,D*79
$GNRMC,031312.400,A,2234.2020,N,11434.4138,E,0.00,326.04,100521,,,D*7D
$GNRMC,031312.800,A,2234.2020,N,11434.4138,E,0.00,326.04,100521,,,D*71
$GNRMC,031313.200,A,2234.2020,N,11434.4138,E,0.00,326.04,100521,,,D*7A
$GNRMC,031313.600,A,2234.2020,N,11434.4138,E,0.00,326.04,100521,,,D*7E
$GNRMC,031314.400,A,2234.2020,N,11434.4138,E,0.00,326.04,100521,,,D*7B
$GNRMC,031314.800,A,2234.2020,N,11434.4138,E,0.00,326.04,100521,,,D*77
$GNRMC,031315.200,A,2234.2020,N,11434.4138,E,0.00,326.04,100521,,,D*7C
$GNRMC,031315.600,A,2234.2020,N,11434.4138,E,0.00,326.04,100521,,,D*78
$GNRMC,031316.000,A,2234.2020,N,11434.4138,E,0.00,326.04,100521,,,D*7D
$GNRMC,031316.400,A,2234.2020,N,11434.4138,E,0.00,326.04,100521,,,D*79
$GNRMC,031316.800,A,2234.2020,N,11434.4138,E,0.00,326.04,100521,,,D*75
$GNRMC,031317.200,A,2234.2020,N,11434.4138,E,0.00,326.04,100521,,,D*7E
$GNRMC,031317.600,A,2234.2020,N,11434.4138,E,0.00,326.04,100521,,,D*7A
$GNRMC,031318.000,A,2234.2020,N,11434.4138,E,0.00,326.04,100521,,,D*73
$GNRMC,031318.400,A,2234.2020,N,11434.4138,E,0.00,326.04,100521,,,D*77
$GNRMC,031318.800,A,2234.2020,N,11434.4138,E,0.00,326.04,100521,,,D*7B
$GNRMC,031319.600,A,2234.2020,N,11434.4138,E,0.00,326.04,100521,,,D*74
$GNRMC,031320.000,A,2234.2020,N,11434.4138,E,0.00,326.04,100521,,,D*78
$GNRMC,031320.400,A,2234.2020,N,11434.4138,E,0.00,326.04,100521,,,D*7C
$GNRMC,031320.800,A,2234.2020,N,11434.4138,E,0.00,326.04,100521,,,D*70
$GNRMC,031321.200,A,2234.2020,N,11434.4138,E,0.00,326.04,100521,,,D*7B
$GNRMC,031321.600,A,2234.2020,N,11434.4138,E,0.00,326.04,100521,,,D*7F
$GNRMC,031322.000,A,2234.2020,N,11434.4138,E,0.00,326.04,100521,,,D*7A
$GNRMC,031322.400,A,2234.2020,N,11434.4138,E,0.00,326.04,100521,,,D*7E
$GNRMC,031322.800,A,2234.2020,N,11434.4138,E,0.00,326.04,100521,,,D*72
$GNRMC,031323.200,A,2234.2020,N,11434.4138,E,0.00,326.04,100521,,,D*79
$GNRMC,031323.600,A,2234.2020,N,11434.4138,E,0.00,326.04,100521,,,D*7D
$GNRMC,031324.000,A,2234.2020,N,11434.4138,E,0.00,326.04,100521,,,D*7C
$GNRMC,031324.400,A,2234.2020,N,11434.4138,E,0.00,326.04,100521,,,D*78
$GNRMC,031324.800,A,2234.2020,N,11434.4138,E,0.00,326.04,100521,,,D*74
$GNRMC,031325.200,A,2234.2020,N,11434.4138,E,0.00,326.04,100521,,,D*7F
$GNRMC,031325.600,A,2234.2020,N,11434.4138,E,0.00,326.04,100521,,,D*7B
$GNRMC,031326.000,A,2234.2020,N,11434.4138,E,0.00,326.04,100521,,,D*7E
$GNRMC,031326.400,A,2234.2020,N,11434.4138,E,0.00,326.04,100521,,,D*7A
$GNRMC,031326.800,A,2234.2020,N,11434.4138,E,0.00,326.04,100521,,,D*76
$GNRMC,031327.200,A,2234.2020,N,11434.4138,E,0.00,326.04,100521,,,D*7D
$GNRMC,031328.000,A,2234.2020,N,11434.4138,E,0.00,326.04,100521,,,D*70
$GNRMC,031328.400,A,2234.2020,N,11434.4138,E,0.00,326.04,100521,,,D*74
$GNRMC,031328.800,A,2234.2020,N,11434.4138,E,0.00,326.04,100521,,,D*78
$GNRMC,031329.200,A,2234.2020,N,11434.4138,E,0.00,326.04,100521,,,D*73
$GNRMC,031329.600,A,2234.2020,N,11434.4138,E,0.00,326.04,100521,,,D*77
$GNRMC,031330.000,A,2234.2020,N,11434.4138,E,0.00,326.04,100521,,,D*79
$GNRMC,031330.400,A,2234.2020,N,11434.4138,E,0.00,326.04,100521,,,D*7D
$GNRMC,031330.800,A,2234.2020,N,11434.4138,E,0.00,326.04,100521,,,D*71
$GNRMC,031331.200,A,2234.2020,N,11434.4138,E,0.00,326.04,100521,,,D*7A
$GNRMC,031331.600,A,2234.2020,N,11434.4138,E,0.00,326.04,100521,,,D*7E
$GNRMC,031332.000,A,2234.2020,N,11434.4138,E,0.00,326.04,100521,,,D*7B
$GNRMC,031332.400,A,2234.2020,N,11434.4138,E,0.00,326.04,100521,,,D*7F
$GNRMC,031333.200,A,2234.2020,N,11434.4138,E,0.00,326.04,100521,,,D*78
$GNRMC,031333.600,A,2234.2020,N,11434.4138,E,0.00,326.04,100521,,,D*7C
$GNRMC,031334.000,A,2234.2020,N,11434.4138,E,0.00,326.04,100521,,,D*7D
$GNRMC,031334.400,A,2234.2020,N,11434.4138,E,0.00,326.04,100521,,,D*79
$GNRMC,031334.800,A,2234.2020,N,11434.4138,E,0.00,326.04,100521,,,D*75
$GNRMC,031335.200,A,2234.2020,N,11434.4138,E,0.00,326.04,100521,,,D*7E
$GNRMC,031335.600,A,2234.2020,N,11434.4138,E,0.00,326.04,100521,,,D*7A
$GNRMC,031336.000,A,2234.2020,N,11434.4138,E,0.00,326.04,100521,,,D*7F
$GNRMC,031336.400,A,2234.2020,N,11434.4138,E,0.00,326.04,100521,,,D*7B
$GNRMC,031336.800,A,2234.2020,N,11434.4138,E,0.00,326.04,100521,,,D*77
$GNRMC,031337.200,A,2234.2020,N,11434.4138,E,0.00,326.04,100521,,,D*7C
$GNRMC,031337.600,A,2234.2020,N,11434.4138,E,0.00,326.04,100521,,,D*78
$GNRMC,031338.400,A,2234.2020,N,11434.4138,E,0.00,326.04,100521,,,D*75
$GNRMC,031338.800,A,2234.2020,N,11434.4138,E,0.00,326.04,100521,,,D*79
$GNRMC,031339.200,A,2234.2020,N,11434.4138,E,0.00,326.04,100521,,,D*72
$GNRMC,031339.600,A,2234.2020,N,11434.4138,E,0.00,326.04,100521,,,D*76
$GNRMC,031340.000,A,2234.2020,N,11434.4138,E,0.00,326.04,100521,,,D*7E
$GNRMC,031340.400,A,2234.2020,N,11434.4138,E,0.00,326.04,100521,,,D*7A
$GNRMC,031340.800,A,2234.2020,N,11434.4138,E,0.00,326.04,100521,,,D*76
$GNRMC,031341.200,A,2234.2020,N,11434.4138,E,0.00,326.04,100521,,,D*7D
$GNRMC,031341.600,A,2234.2020,N,11434.4138,E,0.79,359.57,100521,,,D*79
$GNRMC,031342.000,A,2234.2020,N,11434.4138,E,0.00,326.04,100521,,,D*7C
$GNRMC,031342.400,A,2234.2020,N,11434.4138,E,0.00,326.04,100521,,,D*78
$GNRMC,031342.800,A,2234.2020,N,11434.4138,E,0.91,310.64,100521,,,D*7F
$GNRMC,031343.200,A,2234.2020,N,11434.4138,E,0.00,326.04,100521,,,D*7F
$GNRMC,031343.600,A,2234.2020,N,11434.4138,E,0.00,326.04,100521,,,D*7B
$GNRMC,031344.000,A,2234.2020,N,11434.4138,E,0.00,326.04,100521,,,D*7A
$GNRMC,031344.400,A,2234.2020,N,11434.4138,E,0.00,326.04,100521,,,D*7E
$GNRMC,031344.800,A,2234.2020,N,11434.4138,E,0.00,326.04,100521,,,D*72
$GNRMC,031345.200,A,2234.2020,N,11434.4138,E,0.00,326.04,100521,,,D*79
$GNRMC,031345.600,A,2234.2020,N,11434.4138,E,0.00,326.04,100521,,,D*7D
$GNRMC,031346.000,A,2234.2020,N,11434.4138,E,0.00,326.04,100521,,,D*78
$GNRMC,031346.800,A,2234.2020,N,11434.4138,E,0.00,326.04,100521,,,D*70
$GNRMC,031347.200,A,2234.2020,N,11434.4138,E,0.00,326.04,100521,,,D*7B
$GNRMC,031347.600,A,2234.2020,N,11434.4138,E,0.00,326.04,100521,,,D*7F
$GNRMC,031348.000,A,2234.2020,N,11434.4138,E,0.00,326.04,100521,,,D*76
$GNRMC,031348.400,A,2234.2020,N,11434.4138,E,0.98,325.12,100521,,,D*77
$GNRMC,031348.800,A,2234.2047,N,11434.4124,E,0.80,335.67,100521,,,D*7D
$GNRMC,031349.200,A,2234.2048,N,11434.4124,E,0.00,335.67,100521,,,D*71
$GNRMC,031349.600,A,2234.2048,N,11434.4124,E,0.00,335.67,100521,,,D*75
$GNRMC,031350.000,A,2234.2048,N,11434.4123,E,0.00,335.67,100521,,,D*7C
$GNRMC,031350.400,A,2234.2048,N,11434.4123,E,0.00,335.67,100521,,,D*78
$GNRMC,031350.800,A,2234.2048,N,11434.4123,E,0.00,335.67,100521,,,D*74
$GNRMC,031351.200,A,2234.2048,N,11434.4123,E,0.00,335.67,100521,,,D*7F
$GNRMC,031352.000,A,2234.2048,N,11434.4123,E,0.00,335.67,100521,,,D*7E
$GNRMC,031352.400,A,2234.2048,N,11434.4123,E,0.00,335.67,100521,,,D*7A
$GNRMC,031352.800,A,2234.2048,N,11434.4123,E,0.00,335.67,100521,,,D*76
$GNRMC,031353.200,A,2234.2048,N,11434.4123,E,0.00,335.67,100521,,,D*7D
$GNRMC,031353.600,A,2234.2048,N,11434.4123,E,0.00,335.67,100521,,,D*79
$GNRMC,031354.000,A,2234.2048,N,11434.4123,E,1.27,343.12,100521,,,D*7F
$GNRMC,031354.400,A,2234.2051,N,11434.4124,E,1.11,353.46,100521,,,D*71
$GNRMC,031354.800,A,2234.2052,N,11434.4124,E,0.99,2.61,100521,,,D*7D
$GNRMC,031355.200,A,2234.2053,N,11434.4125,E,0.78,13.50,100521,,,D*4B
$GNRMC,031355.600,A,2234.2052,N,11434.4126,E,0.00,13.50,100521,,,D*42
$GNRMC,031356.000,A,2234.2052,N,11434.4126,E,0.00,13.50,100521,,,D*47
$GNRMC,031356.400,A,2234.2052,N,11434.4126,E,0.00,13.50,100521,,,D*43
$GNRMC,031357.200,A,2234.2052,N,11434.4126,E,0.00,13.50,100521,,,D*44
$GNRMC,031357.600,A,2234.2052,N,11434.4126,E,0.00,13.50,100521,,,D*40
$GNRMC,031358.000,A,2234.2052,N,11434.4126,E,0.00,13.50,100521,,,D*49
$GNRMC,031358.400,A,2234.2052,N,11434.4126,E,0.00,13.50,100521,,,D*4D
$GNRMC,031358.800,A,2234.2052,N,11434.4126,E,0.00,13.50,100521,,,D*41
$GNRMC,031359.200,A,2234.2052,N,11434.4126,E,0.00,13.50,100521,,,D*4A
$GNRMC,031359.600,A,2234.2052,N,11434.4126,E,0.00,13.50,100521,,,D*4E
$GNRMC,031400.000,A,2234.2052,N,11434.4126,E,0.00,13.50,100521,,,D*43
$GNRMC,031400.400,A,2234.2052,N,11434.4126,E,0.00,13.50,100521,,,D*47
$GNRMC,031400.800,A,2234.2052,N,11434.4126,E,0.00,13.50,100521,,,D*4B
$GNRMC,031401.200,A,2234.2052,N,11434.4126,E,0.00,13.50,100521,,,D*40
$GNRMC,031401.600,A,2234.2052,N,11434.4126,E,0.00,13.50,100521,,,D*44
$GNRMC,031402.400,A,2234.2052,N,11434.4126,E,0.00,13.50,100521,,,D*45
$GNRMC,031402.800,A,2234.2052,N,11434.4126,E,0.00,13.50,100521,,,D*49
$GNRMC,031403.200,A,2234.2052,N,11434.4126,E,0.00,13.50,100521,,,D*42
$GNRMC,031403.600,A,2234.2052,N,11434.4126,E,0.00,13.50,100521,,,D*46
$GNRMC,031404.000,A,2234.2052,N,11434.4126,E,0.00,13.50,100521,,,D*47
$GNRMC,031404.400,A,2234.2052,N,11434.4126,E,0.00,13.50,100521,,,D*43
$GNRMC,031404.800,A,2234.2052,N,11434.4126,E,0.00,13.50,100521,,,D*4F
$GNRMC,031405.200,A,2234.2052,N,11434.4126,E,0.00,13.50,100521,,,D*44
$GNRMC,031405.600,A,2234.2052,N,11434.4126,E,0.00,13.50,100521,,,D*40
$GNRMC,031406.000,A,2234.2052,N,11434.4126,E,0.00,13.50,100521,,,D*45
$GNRMC,031406.400,A,2234.2052,N,11434.4126,E,0.00,13.50,100521,,,D*41
$GNRMC,031406.800,A,2234.2052,N,11434.4126,E,0.00,13.50,100521,,,D*4D
$GNRMC,031407.600,A,2234.2052,N,11434.4126,E,0.00,13.50,100521,,,D*42
$GNRMC,031408.000,A,2234.2052,N,11434.4126,E,0.00,13.50,100521,,,D*4B
$GNRMC,031408.400,A,2234.2052,N,11434.4126,E,0.00,13.50,100521,,,D*4F
$GNRMC,031408.800,A,2234.2052,N,11434.4126,E,0.00,13.50,100521,,,D*43
$GNRMC,031409.200,A,2234.2052,N,11434.4126,E,0.00,13.50,100521,,,D*48
$GNRMC,031409.600,A,2234.2052,N,11434.4126,E,0.00,13.50,100521,,,D*4C
$GNRMC,031410.000,A,2234.2052,N,11434.4126,E,0.00,13.50,100521,,,D*42
$GNRMC,031410.400,A,2234.2052,N,11434.4126,E,0.00,13.50,100521,,,D*46
$GNRMC,031410.800,A,2234.2052,N,11434.4126,E,0.00,13.50,100521,,,D*4A
$GNRMC,031411.200,A,2234.2052,N,11434.4126,E,0.00,13.50,100521,,,D*41
$GNRMC,031411.600,A,2234.2052,N,11434.4126,E,0.00,13.50,100521,,,D*45
$GNRMC,031412.000,A,2234.2052,N,11434.4126,E,0.00,13.50,100521,,,D*40
$GNRMC,031412.400,A,2234.2052,N,11434.4126,E,0.00,13.50,100521,,,D*44
$GNRMC,031412.800,A,2234.2052,N,11434.4126,E,0.00,13.50,100521,,,D*48
$GNRMC,031413.200,A,2234.2052,N,11434.4126,E,0.00,13.50,100521,,,D*43
$GNRMC,031413.600,A,2234.2052,N,11434.4126,E,0.00,13.50,100521,,,D*47
$GNRMC,031414.000,A,2234.2052,N,11434.4126,E,0.00,13.50,100521,,,D*46
$GNRMC,031414.400,A,2234.2052,N,11434.4126,E,0.00,13.50,100521,,,D*42
$GNRMC,031414.800,A,2234.2052,N,11434.4126,E,0.00,13.50,100521,,,D*4E
$GNRMC,031415.200,A,2234.2052,N,11434.4126,E,0.00,13.50,100521,,,D*45
$GNRMC,031415.600,A,2234.2052,N,11434.4126,E,0.00,13.50,100521,,,D*41
$GNRMC,031416.000,A,2234.2052,N,11434.4126,E,0.00,13.50,100521,,,D*44
$GNRMC,031416.400,A,2234.2052,N,11434.4126,E,0.00,13.50,100521,,,D*40
$GNRMC,031416.800,A,2234.2052,N,11434.4126,E,0.00,13.50,100521,,,D*4C
$GNRMC,031417.200,A,2234.2052,N,11434.4126,E,0.00,13.50,100521,,,D*47
$GNRMC,031417.600,A,2234.2052,N,11434.4126,E,0.00,13.50,100521,,,D*43
$GNRMC,031418.000,A,2234.2052,N,11434.4126,E,0.00,13.50,100521,,,D*4A
$GNRMC,031418.400,A,2234.2052,N,11434.4126,E,0.00,13.50,100521,,,D*4E
$GNRMC,031418.800,A,2234.2052,N,11434.4126,E,0.00,13.50,100521,,,D*42
$GNRMC,031419.200,A,2234.2052,N,11434.4126,E,0.00,13.50,100521,,,D*49
$GNRMC,031419.600,A,2234.2052,N,11434.4126,E,0.00,13.50,100521,,,D*4D
$GNRMC,031420.000,A,2234.2052,N,11434.4126,E,0.00,13.50,100521,,,D*41
$GNRMC,031420.400,A,2234.2052,N,11434.4126,E,0.00,13.50,100521,,,D*45
$GNRMC,031420.800,A,2234.2052,N,11434.4126,E,0.00,13.50,100521,,,D*49
$GNRMC,031421.200,A,2234.2052,N,11434.4126,E,0.00,13.50,100521,,,D*42
$GNRMC,031421.600,A,2234.2052,N,11434.4126,E,0.00,13.50,100521,,,D*46
$GNRMC,031422.000,A,2234.2052,N,11434.4126,E,0.00,13.50,100521,,,D*43
$GNRMC,031422.400,A,2234.2052,N,11434.4126,E,0.00,13.50,100521,,,D*47
$GNRMC,031422.800,A,2234.2052,N,11434.4126,E,0.00,13.50,100521,,,D*4B
$GNRMC,031423.200,A,2234.2052,N,11434.4126,E,0.00,13.50,100521,,,D*40
$GNRMC,031423.600,A,2234.2052,N,11434.4126,E,0.00,13.50,100521,,,D*44
$GNRMC,031424.000,A,2234.2052,N,11434.4126,E,0.00,13.50,100521,,,D*45
$GNRMC,031424.400,A,2234.2052,N,11434.4126,E,0.00,13.50,100521,,,D*41
$GNRMC,031424.800,A,2234.2052,N,11434.4126,E,0.00,13.50,100521,,,D*4D
$GNRMC,031425.200,A,2234.2052,N,11434.4126,E,0.00,13.50,100521,,,D*46
$GNRMC,031425.600,A,2234.2052,N,11434.4126,E,0.00,13.50,100521,,,D*42
$GNRMC,031426.000,A,2234.2052,N,11434.4126,E,0.00,13.50,100521,,,D*47
$GNRMC,031426.400,A,2234.2052,N,11434.4126,E,0.00,13.50,100521,,,D*43
$GNRMC,031426.800,A,2234.2052,N,11434.4126,E,0.00,13.50,100521,,,D*4F
$GNRMC,031427.200,A,2234.2052,N,11434.4126,E,0.00,13.50,100521,,,D*44
$GNRMC,031427.600,A,2234.2052,N,11434.4126,E,0.00,13.50,100521,,,D*40
$GNRMC,031428.000,A,2234.2052,N,11434.4126,E,0.00,13.50,100521,,,D*49
$GNRMC,031428.400,A,2234.2052,N,11434.4126,E,0.00,13.50,100521,,,D*4D
$GNRMC,031428.800,A,2234.2052,N,11434.4126,E,0.00,13.50,100521,,,D*41
$GNRMC,031429.200,A,2234.2052,N,11434.4126,E,0.00,13.50,100521,,,D*4A
$GNRMC,031429.600,A,2234.2052,N,11434.4126,E,0.00,13.50,100521,,,D*4E
$GNRMC,031430.000,A,2234.2052,N,11434.4126,E,0.00,13.50,100521,,,D*40
$GNRMC,031430.400,A,2234.2052,N,11434.4126,E,0.00,13.50,100521,,,D*44
$GNRMC,031430.800,A,2234.2052,N,11434.4126,E,0.00,13.50,100521,,,D*48
$GNRMC,031431.200,A,2234.2052,N,11434.4126,E,0.00,13.50,100521,,,D*43
$GNRMC,031431.600,A,2234.2052,N,11434.4126,E,0.00,13.50,100521,,,D*47
$GNRMC,031432.000,A,2234.2052,N,11434.4126,E,0.00,13.50,100521,,,D*42
$GNRMC,031432.400,A,2234.2052,N,11434.4126,E,0.00,13.50,100521,,,D*46
$GNRMC,031432.800,A,2234.2052,N,11434.4126,E,0.00,13.50,100521,,,D*4A
$GNRMC,031433.200,A,2234.2052,N,11434.4126,E,0.00,13.50,100521,,,D*41
$GNRMC,031433.600,A,2234.2052,N,11434.4126,E,0.00,13.50,100521,,,D*45
$GNRMC,031434.000,A,2234.2052,N,11434.4126,E,0.00,13.50,100521,,,D*44
$GNRMC,031434.400,A,2234.2052,N,11434.4126,E,0.00,13.50,100521,,,D*40
$GNRMC,031434.800,A,2234.2052,N,11434.4126,E,0.00,13.50,100521,,,D*4C
$GNRMC,031435.200,A,2234.2052,N,11434.4126,E,0.00,13.50,100521,,,D*47
